{
"type": "FeatureCollection",
"crs": { "type": "name", "properties": { "name": "urn:ogc:def:crs:OGC:1.3:CRS84" } },
"features": [
{ "type": "Feature", "properties": { "province": "黑龙江省", "city": "齐齐哈尔市", "district": "龙沙区", "address": "黑龙江省齐齐哈尔市龙沙区谊联名居2号楼", "latitude": 47.32784, "longitude": 123.9623, "count": 1, "Size": "2.065", "Notes:": null, "field_10": null, "Source: CBN": null }, "geometry": { "type": "Point", "coordinates": [ 123.9623, 47.32784 ] } },
{ "type": "Feature", "properties": { "province": "黑龙江省", "city": "齐齐哈尔市", "district": "龙沙区", "address": "黑龙江省齐齐哈尔市龙沙区公园社区新特药旁宾馆", "latitude": 47.33594, "longitude": 123.9613, "count": 1, "Size": "2.065", "Notes:": null, "field_10": null, "Source: CBN": null }, "geometry": { "type": "Point", "coordinates": [ 123.9613, 47.33594 ] } },
{ "type": "Feature", "properties": { "province": "黑龙江省", "city": "齐齐哈尔市", "district": "龙沙区", "address": "黑龙江省齐齐哈尔市龙沙区领航国际1号楼", "latitude": 47.31673, "longitude": 123.9585, "count": 1, "Size": "2.065", "Notes:": null, "field_10": null, "Source: CBN": null }, "geometry": { "type": "Point", "coordinates": [ 123.9585, 47.31673 ] } },
{ "type": "Feature", "properties": { "province": "黑龙江省", "city": "齐齐哈尔市", "district": "龙沙区", "address": "黑龙江省齐齐哈尔市龙沙区齐齐哈尔医学院附属第二医院", "latitude": 47.33784, "longitude": 123.9349, "count": 1, "Size": "2.065", "Notes:": null, "field_10": null, "Source: CBN": null }, "geometry": { "type": "Point", "coordinates": [ 123.9349, 47.33784 ] } },
{ "type": "Feature", "properties": { "province": "黑龙江省", "city": "齐齐哈尔市", "district": "龙沙区", "address": "黑龙江省齐齐哈尔市龙沙区锦江阁二期23号楼1门", "latitude": 47.33542, "longitude": 123.9308, "count": 1, "Size": "2.065", "Notes:": null, "field_10": null, "Source: CBN": null }, "geometry": { "type": "Point", "coordinates": [ 123.9308, 47.33542 ] } },
{ "type": "Feature", "properties": { "province": "黑龙江省", "city": "齐齐哈尔市", "district": "龙沙区", "address": "黑龙江省齐齐哈尔市龙沙区江安街道", "latitude": 47.32603, "longitude": 123.926, "count": 1, "Size": "2.065", "Notes:": null, "field_10": null, "Source: CBN": null }, "geometry": { "type": "Point", "coordinates": [ 123.926, 47.32603 ] } },
{ "type": "Feature", "properties": { "province": "黑龙江省", "city": "齐齐哈尔市", "district": "龙沙区", "address": "黑龙江省齐齐哈尔市龙沙区安顺小区集资楼6号楼", "latitude": 47.33171, "longitude": 123.9241, "count": 1, "Size": "2.065", "Notes:": null, "field_10": null, "Source: CBN": null }, "geometry": { "type": "Point", "coordinates": [ 123.9241, 47.33171 ] } },
{ "type": "Feature", "properties": { "province": "黑龙江省", "city": "齐齐哈尔市", "district": "龙江县", "address": "黑龙江省齐齐哈尔市龙江县明亮花苑小区", "latitude": 47.33927, "longitude": 123.1849, "count": 5, "Size": "3.47286073", "Notes:": null, "field_10": null, "Source: CBN": null }, "geometry": { "type": "Point", "coordinates": [ 123.1849, 47.33927 ] } },
{ "type": "Feature", "properties": { "province": "黑龙江省", "city": "齐齐哈尔市", "district": "铁锋区", "address": "黑龙江省齐齐哈尔市铁锋区龙华小区4号楼", "latitude": 47.33593, "longitude": 123.9744, "count": 1, "Size": "2.065", "Notes:": null, "field_10": null, "Source: CBN": null }, "geometry": { "type": "Point", "coordinates": [ 123.9744, 47.33593 ] } },
{ "type": "Feature", "properties": { "province": "黑龙江省", "city": "齐齐哈尔市", "district": "讷河市", "address": "黑龙江省齐齐哈尔市讷河市贵仁名苑5栋3单元", "latitude": 48.48132, "longitude": 124.8933, "count": 1, "Size": "2.065", "Notes:": null, "field_10": null, "Source: CBN": null }, "geometry": { "type": "Point", "coordinates": [ 124.8933, 48.48132 ] } },
{ "type": "Feature", "properties": { "province": "黑龙江省", "city": "齐齐哈尔市", "district": "甘南县", "address": "黑龙江省齐齐哈尔市甘南县龙福嘉园6号楼", "latitude": 47.92215, "longitude": 123.5117, "count": 1, "Size": "2.065", "Notes:": null, "field_10": null, "Source: CBN": null }, "geometry": { "type": "Point", "coordinates": [ 123.5117, 47.92215 ] } },
{ "type": "Feature", "properties": { "province": "黑龙江省", "city": "齐齐哈尔市", "district": "甘南县", "address": "黑龙江省齐齐哈尔市甘南县木材西大门小二楼西侧", "latitude": 47.92236, "longitude": 123.5074, "count": 1, "Size": "2.065", "Notes:": null, "field_10": null, "Source: CBN": null }, "geometry": { "type": "Point", "coordinates": [ 123.5074, 47.92236 ] } },
{ "type": "Feature", "properties": { "province": "黑龙江省", "city": "齐齐哈尔市", "district": "甘南县", "address": "黑龙江省齐齐哈尔市甘南县土地局家属楼", "latitude": 46.39, "longitude": 123.4246, "count": 1, "Size": "2.065", "Notes:": null, "field_10": null, "Source: CBN": null }, "geometry": { "type": "Point", "coordinates": [ 123.4246, 46.39 ] } },
{ "type": "Feature", "properties": { "province": "黑龙江省", "city": "齐齐哈尔市", "district": "梅里斯达斡尔族区", "address": "黑龙江省齐齐哈尔市梅里斯达斡尔族区莽格吐村", "latitude": 47.78044, "longitude": 124.1382, "count": 1, "Size": "2.065", "Notes:": null, "field_10": null, "Source: CBN": null }, "geometry": { "type": "Point", "coordinates": [ 124.1382, 47.78044 ] } },
{ "type": "Feature", "properties": { "province": "黑龙江省", "city": "齐齐哈尔市", "district": "拜泉县", "address": "黑龙江省齐齐哈尔市拜泉县鑫海家园2号楼4单元", "latitude": 47.61304, "longitude": 126.0943, "count": 1, "Size": "2.065", "Notes:": null, "field_10": null, "Source: CBN": null }, "geometry": { "type": "Point", "coordinates": [ 126.0943, 47.61304 ] } },
{ "type": "Feature", "properties": { "province": "黑龙江省", "city": "齐齐哈尔市", "district": "建华区", "address": "黑龙江省齐齐哈尔市建华区运建园小区60号楼圣水湖养老院。", "latitude": 47.3554, "longitude": 123.988, "count": 1, "Size": "2.065", "Notes:": null, "field_10": null, "Source: CBN": null }, "geometry": { "type": "Point", "coordinates": [ 123.988, 47.3554 ] } },
{ "type": "Feature", "properties": { "province": "黑龙江省", "city": "齐齐哈尔市", "district": "建华区", "address": "黑龙江省齐齐哈尔市建华区运建小区", "latitude": 47.35377, "longitude": 123.9879, "count": 6, "Size": "3.683518962", "Notes:": null, "field_10": null, "Source: CBN": null }, "geometry": { "type": "Point", "coordinates": [ 123.9879, 47.35377 ] } },
{ "type": "Feature", "properties": { "province": "黑龙江省", "city": "齐齐哈尔市", "district": "建华区", "address": "黑龙江省齐齐哈尔市建华区运建园小区60号楼2单元", "latitude": 47.35127, "longitude": 123.9863, "count": 1, "Size": "2.065", "Notes:": null, "field_10": null, "Source: CBN": null }, "geometry": { "type": "Point", "coordinates": [ 123.9863, 47.35127 ] } },
{ "type": "Feature", "properties": { "province": "黑龙江省", "city": "齐齐哈尔市", "district": "建华区", "address": "黑龙江省齐齐哈尔市建华区运建园小区圣水湖养老院", "latitude": 47.35355, "longitude": 123.9851, "count": 1, "Size": "2.065", "Notes:": null, "field_10": null, "Source: CBN": null }, "geometry": { "type": "Point", "coordinates": [ 123.9851, 47.35355 ] } },
{ "type": "Feature", "properties": { "province": "黑龙江省", "city": "齐齐哈尔市", "district": "建华区", "address": "黑龙江省齐齐哈尔市建华区福鼎小区", "latitude": 47.36228, "longitude": 123.9722, "count": 2, "Size": "2.58316855", "Notes:": null, "field_10": null, "Source: CBN": null }, "geometry": { "type": "Point", "coordinates": [ 123.9722, 47.36228 ] } },
{ "type": "Feature", "properties": { "province": "黑龙江省", "city": "齐齐哈尔市", "district": "建华区", "address": "黑龙江省齐齐哈尔市建华区东路小区9号楼1单元", "latitude": 47.35683, "longitude": 123.9635, "count": 1, "Size": "2.065", "Notes:": null, "field_10": null, "Source: CBN": null }, "geometry": { "type": "Point", "coordinates": [ 123.9635, 47.35683 ] } },
{ "type": "Feature", "properties": { "province": "黑龙江省", "city": "齐齐哈尔市", "district": "建华区", "address": "黑龙江省齐齐哈尔市建华区天增小区6号楼7单元", "latitude": 47.34934, "longitude": 123.9567, "count": 7, "Size": "3.871566496", "Notes:": null, "field_10": null, "Source: CBN": null }, "geometry": { "type": "Point", "coordinates": [ 123.9567, 47.34934 ] } },
{ "type": "Feature", "properties": { "province": "黑龙江省", "city": "齐齐哈尔市", "district": "建华区", "address": "黑龙江省齐齐哈尔市建华区农牧小区", "latitude": 47.35434, "longitude": 123.9555, "count": 1, "Size": "2.065", "Notes:": null, "field_10": null, "Source: CBN": null }, "geometry": { "type": "Point", "coordinates": [ 123.9555, 47.35434 ] } },
{ "type": "Feature", "properties": { "province": "黑龙江省", "city": "齐齐哈尔市", "district": "建华区", "address": "黑龙江省齐齐哈尔市建华区香江家园小区", "latitude": 47.38088, "longitude": 123.932, "count": 1, "Size": "2.065", "Notes:": null, "field_10": null, "Source: CBN": null }, "geometry": { "type": "Point", "coordinates": [ 123.932, 47.38088 ] } },
{ "type": "Feature", "properties": { "province": "黑龙江省", "city": "齐齐哈尔市", "district": "依安县", "address": "黑龙江省齐齐哈尔市依安县东方嘉盛小区5号楼1单元", "latitude": 47.89762, "longitude": 125.3068, "count": 1, "Size": "2.065", "Notes:": null, "field_10": null, "Source: CBN": null }, "geometry": { "type": "Point", "coordinates": [ 125.3068, 47.89762 ] } },
{ "type": "Feature", "properties": { "province": "黑龙江省", "city": "齐齐哈尔市", "district": "依安县", "address": "黑龙江省齐齐哈尔市依安县自新村公寓楼1号楼", "latitude": 47.45735, "longitude": 125.2745, "count": 1, "Size": "2.065", "Notes:": null, "field_10": null, "Source: CBN": null }, "geometry": { "type": "Point", "coordinates": [ 125.2745, 47.45735 ] } },
{ "type": "Feature", "properties": { "province": "黑龙江省", "city": "齐齐哈尔市", "district": "依安县", "address": "黑龙江省齐齐哈尔市依安县四烈村6组", "latitude": 48.02766, "longitude": 125.1521, "count": 1, "Size": "2.065", "Notes:": null, "field_10": null, "Source: CBN": null }, "geometry": { "type": "Point", "coordinates": [ 125.1521, 48.02766 ] } },
{ "type": "Feature", "properties": { "province": "黑龙江省", "city": "齐齐哈尔市", "district": null, "address": null, "latitude": null, "longitude": null, "count": 43, "Size": "6.958736105", "Notes:": null, "field_10": null, "Source: CBN": null }, "geometry": null },
{ "type": "Feature", "properties": { "province": "黑龙江省", "city": "黑河市", "district": "嫩江市", "address": "黑龙江省黑河市嫩江市安居5号楼", "latitude": 49.17403, "longitude": 125.2255, "count": 2, "Size": "2.58316855", "Notes:": null, "field_10": null, "Source: CBN": null }, "geometry": { "type": "Point", "coordinates": [ 125.2255, 49.17403 ] } },
{ "type": "Feature", "properties": { "province": "黑龙江省", "city": "黑河市", "district": "嫩江县", "address": "黑龙江省黑河市嫩江县团结1队", "latitude": 49.16301, "longitude": 125.2213, "count": 2, "Size": "2.58316855", "Notes:": null, "field_10": null, "Source: CBN": null }, "geometry": { "type": "Point", "coordinates": [ 125.2213, 49.16301 ] } },
{ "type": "Feature", "properties": { "province": "黑龙江省", "city": "黑河市", "district": "嫩江县", "address": "黑龙江省黑河市嫩江县建委小区九单元", "latitude": 49.17074, "longitude": 125.2183, "count": 3, "Size": "2.944626535", "Notes:": null, "field_10": null, "Source: CBN": null }, "geometry": { "type": "Point", "coordinates": [ 125.2183, 49.17074 ] } },
{ "type": "Feature", "properties": { "province": "黑龙江省", "city": "黑河市", "district": null, "address": null, "latitude": null, "longitude": null, "count": 14, "Size": "4.843055116", "Notes:": null, "field_10": null, "Source: CBN": null }, "geometry": null },
{ "type": "Feature", "properties": { "province": "黑龙江省", "city": "鹤岗市", "district": "工农区", "address": "黑龙江省鹤岗市工农区宇龙社区", "latitude": 47.33269, "longitude": 130.2833, "count": 1, "Size": "2.065", "Notes:": null, "field_10": null, "Source: CBN": null }, "geometry": { "type": "Point", "coordinates": [ 130.2833, 47.33269 ] } },
{ "type": "Feature", "properties": { "province": "黑龙江省", "city": "鹤岗市", "district": null, "address": null, "latitude": null, "longitude": null, "count": 5, "Size": "3.47286073", "Notes:": null, "field_10": null, "Source: CBN": null }, "geometry": null },
{ "type": "Feature", "properties": { "province": "黑龙江省", "city": "鸡西市", "district": "鸡冠区", "address": "黑龙江省鸡西市鸡冠区龙溪花园蔬菜高层", "latitude": 45.29658, "longitude": 130.9934, "count": 1, "Size": "2.065", "Notes:": null, "field_10": null, "Source: CBN": null }, "geometry": { "type": "Point", "coordinates": [ 130.9934, 45.29658 ] } },
{ "type": "Feature", "properties": { "province": "黑龙江省", "city": "鸡西市", "district": "鸡冠区", "address": "黑龙江省鸡西市鸡冠区龙溪家园（蔬菜高层）", "latitude": 45.29658, "longitude": 130.9934, "count": 1, "Size": "2.065", "Notes:": null, "field_10": null, "Source: CBN": null }, "geometry": { "type": "Point", "coordinates": [ 130.9934, 45.29658 ] } },
{ "type": "Feature", "properties": { "province": "黑龙江省", "city": "鸡西市", "district": "鸡冠区", "address": "黑龙江省鸡西市鸡冠区幸福小区", "latitude": 45.30222, "longitude": 130.9648, "count": 1, "Size": "2.065", "Notes:": null, "field_10": null, "Source: CBN": null }, "geometry": { "type": "Point", "coordinates": [ 130.9648, 45.30222 ] } },
{ "type": "Feature", "properties": { "province": "黑龙江省", "city": "鸡西市", "district": "鸡东县", "address": "黑龙江省鸡西市鸡东县东升首府", "latitude": 45.2545, "longitude": 131.1345, "count": 3, "Size": "2.944626535", "Notes:": null, "field_10": null, "Source: CBN": null }, "geometry": { "type": "Point", "coordinates": [ 131.1345, 45.2545 ] } },
{ "type": "Feature", "properties": { "province": "黑龙江省", "city": "鸡西市", "district": "恒山区", "address": "黑龙江省鸡西市恒山区小恒山公司楼", "latitude": 45.28601, "longitude": 130.9785, "count": 1, "Size": "2.065", "Notes:": null, "field_10": null, "Source: CBN": null }, "geometry": { "type": "Point", "coordinates": [ 130.9785, 45.28601 ] } },
{ "type": "Feature", "properties": { "province": "黑龙江省", "city": "鸡西市", "district": "恒山区", "address": "黑龙江省鸡西市恒山区胜利村", "latitude": 45.28921, "longitude": 130.9689, "count": 1, "Size": "2.065", "Notes:": null, "field_10": null, "Source: CBN": null }, "geometry": { "type": "Point", "coordinates": [ 130.9689, 45.28921 ] } },
{ "type": "Feature", "properties": { "province": "黑龙江省", "city": "鸡西市", "district": "恒山区", "address": "黑龙江省鸡西市恒山区胜利村三组", "latitude": 45.10331, "longitude": 130.9442, "count": 1, "Size": "2.065", "Notes:": null, "field_10": null, "Source: CBN": null }, "geometry": { "type": "Point", "coordinates": [ 130.9442, 45.10331 ] } },
{ "type": "Feature", "properties": { "province": "黑龙江省", "city": "鸡西市", "district": "恒山区", "address": "黑龙江省鸡西市恒山区小恒山二中对面二号楼", "latitude": 45.21297, "longitude": 130.9233, "count": 1, "Size": "2.065", "Notes:": null, "field_10": null, "Source: CBN": null }, "geometry": { "type": "Point", "coordinates": [ 130.9233, 45.21297 ] } },
{ "type": "Feature", "properties": { "province": "黑龙江省", "city": "鸡西市", "district": "恒山区", "address": "黑龙江省鸡西市恒山区恒馨家园一号楼", "latitude": 45.21015, "longitude": 130.9116, "count": 1, "Size": "2.065", "Notes:": null, "field_10": null, "Source: CBN": null }, "geometry": { "type": "Point", "coordinates": [ 130.9116, 45.21015 ] } },
{ "type": "Feature", "properties": { "province": "黑龙江省", "city": "鸡西市", "district": "恒山区", "address": "黑龙江省鸡西市恒山区恒馨家园3号楼", "latitude": 45.2106, "longitude": 130.9107, "count": 1, "Size": "2.065", "Notes:": null, "field_10": null, "Source: CBN": null }, "geometry": { "type": "Point", "coordinates": [ 130.9107, 45.2106 ] } },
{ "type": "Feature", "properties": { "province": "黑龙江省", "city": "鸡西市", "district": "恒山区", "address": "黑龙江省鸡西市恒山区泰和茗居C区1号楼", "latitude": 45.2164, "longitude": 130.9103, "count": 1, "Size": "2.065", "Notes:": null, "field_10": null, "Source: CBN": null }, "geometry": { "type": "Point", "coordinates": [ 130.9103, 45.2164 ] } },
{ "type": "Feature", "properties": { "province": "黑龙江省", "city": "鸡西市", "district": "恒山区", "address": "黑龙江省鸡西市恒山区里泰和名居c栋1号楼", "latitude": 45.21639, "longitude": 130.9097, "count": 1, "Size": "2.065", "Notes:": null, "field_10": null, "Source: CBN": null }, "geometry": { "type": "Point", "coordinates": [ 130.9097, 45.21639 ] } },
{ "type": "Feature", "properties": { "province": "黑龙江省", "city": "鸡西市", "district": "恒山区", "address": "黑龙江省鸡西市恒山区泰合铭居C区1号楼", "latitude": 45.21574, "longitude": 130.9085, "count": 1, "Size": "2.065", "Notes:": null, "field_10": null, "Source: CBN": null }, "geometry": { "type": "Point", "coordinates": [ 130.9085, 45.21574 ] } },
{ "type": "Feature", "properties": { "province": "黑龙江省", "city": "鸡西市", "district": "恒山区", "address": "黑龙江省鸡西市恒山区公安局家属楼", "latitude": 45.21162, "longitude": 130.9065, "count": 1, "Size": "2.065", "Notes:": null, "field_10": null, "Source: CBN": null }, "geometry": { "type": "Point", "coordinates": [ 130.9065, 45.21162 ] } },
{ "type": "Feature", "properties": { "province": "黑龙江省", "city": "鸡西市", "district": "恒山区", "address": "黑龙江省鸡西市恒山区小恒山百货对面红砖楼", "latitude": 45.19759, "longitude": 130.8966, "count": 1, "Size": "2.065", "Notes:": null, "field_10": null, "Source: CBN": null }, "geometry": { "type": "Point", "coordinates": [ 130.8966, 45.19759 ] } },
{ "type": "Feature", "properties": { "province": "黑龙江省", "city": "鸡西市", "district": null, "address": null, "latitude": null, "longitude": null, "count": 46, "Size": "7.11198506", "Notes:": null, "field_10": null, "Source: CBN": null }, "geometry": null },
{ "type": "Feature", "properties": { "province": "黑龙江省", "city": "绥化市", "district": "绥棱县", "address": "黑龙江省绥化市绥棱县阁山乡三合村", "latitude": 47.27989, "longitude": 127.3273, "count": 1, "Size": "2.065", "Notes:": null, "field_10": null, "Source: CBN": null }, "geometry": { "type": "Point", "coordinates": [ 127.3273, 47.27989 ] } },
{ "type": "Feature", "properties": { "province": "黑龙江省", "city": "绥化市", "district": "绥棱县", "address": "黑龙江省绥化市绥棱县十六井村", "latitude": 47.30535, "longitude": 127.3068, "count": 1, "Size": "2.065", "Notes:": null, "field_10": null, "Source: CBN": null }, "geometry": { "type": "Point", "coordinates": [ 127.3068, 47.30535 ] } },
{ "type": "Feature", "properties": { "province": "黑龙江省", "city": "绥化市", "district": "绥棱县", "address": "黑龙江省绥化市绥棱县厦门花园A区", "latitude": 47.24059, "longitude": 127.1124, "count": 2, "Size": "2.58316855", "Notes:": null, "field_10": null, "Source: CBN": null }, "geometry": { "type": "Point", "coordinates": [ 127.1124, 47.24059 ] } },
{ "type": "Feature", "properties": { "province": "黑龙江省", "city": "绥化市", "district": "绥棱县", "address": "黑龙江省绥化市绥棱县博林雅苑小区", "latitude": 47.24156, "longitude": 127.1088, "count": 1, "Size": "2.065", "Notes:": null, "field_10": null, "Source: CBN": null }, "geometry": { "type": "Point", "coordinates": [ 127.1088, 47.24156 ] } },
{ "type": "Feature", "properties": { "province": "黑龙江省", "city": "绥化市", "district": "绥棱县", "address": "黑龙江省绥化市绥棱县林业局林翠小区", "latitude": 47.25759, "longitude": 127.1013, "count": 3, "Size": "2.944626535", "Notes:": null, "field_10": null, "Source: CBN": null }, "geometry": { "type": "Point", "coordinates": [ 127.1013, 47.25759 ] } },
{ "type": "Feature", "properties": { "province": "黑龙江省", "city": "绥化市", "district": "绥棱县", "address": "黑龙江省绥化市绥棱县绥棱林业局林翠小区", "latitude": 47.25806, "longitude": 127.1003, "count": 1, "Size": "2.065", "Notes:": null, "field_10": null, "Source: CBN": null }, "geometry": { "type": "Point", "coordinates": [ 127.1003, 47.25806 ] } },
{ "type": "Feature", "properties": { "province": "黑龙江省", "city": "绥化市", "district": "绥棱县", "address": "黑龙江省绥化市绥棱县绥棱林业局润森小区", "latitude": 47.25872, "longitude": 127.0975, "count": 1, "Size": "2.065", "Notes:": null, "field_10": null, "Source: CBN": null }, "geometry": { "type": "Point", "coordinates": [ 127.0975, 47.25872 ] } },
{ "type": "Feature", "properties": { "province": "黑龙江省", "city": "绥化市", "district": "绥棱县", "address": "黑龙江省绥化市绥棱县绥棱林业局鑫秀小区", "latitude": 47.25877, "longitude": 127.0974, "count": 1, "Size": "2.065", "Notes:": null, "field_10": null, "Source: CBN": null }, "geometry": { "type": "Point", "coordinates": [ 127.0974, 47.25877 ] } },
{ "type": "Feature", "properties": { "province": "黑龙江省", "city": "绥化市", "district": "庆安县", "address": "黑龙江省绥化市庆安县恒源三区", "latitude": 46.8811, "longitude": 127.5159, "count": 2, "Size": "2.58316855", "Notes:": null, "field_10": null, "Source: CBN": null }, "geometry": { "type": "Point", "coordinates": [ 127.5159, 46.8811 ] } },
{ "type": "Feature", "properties": { "province": "黑龙江省", "city": "绥化市", "district": "庆安县", "address": "黑龙江省绥化市庆安县百盛小区", "latitude": 46.8746, "longitude": 127.5156, "count": 1, "Size": "2.065", "Notes:": null, "field_10": null, "Source: CBN": null }, "geometry": { "type": "Point", "coordinates": [ 127.5156, 46.8746 ] } },
{ "type": "Feature", "properties": { "province": "黑龙江省", "city": "绥化市", "district": "庆安县", "address": "黑龙江省绥化市庆安县乐安新村", "latitude": 46.86326, "longitude": 127.4808, "count": 1, "Size": "2.065", "Notes:": null, "field_10": null, "Source: CBN": null }, "geometry": { "type": "Point", "coordinates": [ 127.4808, 46.86326 ] } },
{ "type": "Feature", "properties": { "province": "黑龙江省", "city": "绥化市", "district": "安达市", "address": "黑龙江省绥化市安达市鸿福家园南区", "latitude": 46.40894, "longitude": 125.3425, "count": 1, "Size": "2.065", "Notes:": null, "field_10": null, "Source: CBN": null }, "geometry": { "type": "Point", "coordinates": [ 125.3425, 46.40894 ] } },
{ "type": "Feature", "properties": { "province": "黑龙江省", "city": "绥化市", "district": "安达市", "address": "黑龙江省绥化市安达市益城小区", "latitude": 46.41925, "longitude": 125.3424, "count": 1, "Size": "2.065", "Notes:": null, "field_10": null, "Source: CBN": null }, "geometry": { "type": "Point", "coordinates": [ 125.3424, 46.41925 ] } },
{ "type": "Feature", "properties": { "province": "黑龙江省", "city": "绥化市", "district": "安达市", "address": "黑龙江省绥化市安达市益城府园", "latitude": 46.41925, "longitude": 125.3424, "count": 1, "Size": "2.065", "Notes:": null, "field_10": null, "Source: CBN": null }, "geometry": { "type": "Point", "coordinates": [ 125.3424, 46.41925 ] } },
{ "type": "Feature", "properties": { "province": "黑龙江省", "city": "绥化市", "district": "安达市", "address": "黑龙江省绥化市安达市仁和家园", "latitude": 46.40999, "longitude": 125.3373, "count": 1, "Size": "2.065", "Notes:": null, "field_10": null, "Source: CBN": null }, "geometry": { "type": "Point", "coordinates": [ 125.3373, 46.40999 ] } },
{ "type": "Feature", "properties": { "province": "黑龙江省", "city": "绥化市", "district": "安达市", "address": "黑龙江省绥化市安达市利鑫名苑", "latitude": 46.41349, "longitude": 125.3323, "count": 1, "Size": "2.065", "Notes:": null, "field_10": null, "Source: CBN": null }, "geometry": { "type": "Point", "coordinates": [ 125.3323, 46.41349 ] } },
{ "type": "Feature", "properties": { "province": "黑龙江省", "city": "绥化市", "district": "北林区", "address": "黑龙江省绥化市北林区北五路铁路家属楼", "latitude": 46.63659, "longitude": 127.0138, "count": 6, "Size": "3.683518962", "Notes:": null, "field_10": null, "Source: CBN": null }, "geometry": { "type": "Point", "coordinates": [ 127.0138, 46.63659 ] } },
{ "type": "Feature", "properties": { "province": "黑龙江省", "city": "绥化市", "district": "北林区", "address": "黑龙江省绥化市北林区顺业家园", "latitude": 46.63449, "longitude": 127.0106, "count": 1, "Size": "2.065", "Notes:": null, "field_10": null, "Source: CBN": null }, "geometry": { "type": "Point", "coordinates": [ 127.0106, 46.63449 ] } },
{ "type": "Feature", "properties": { "province": "黑龙江省", "city": "绥化市", "district": "北林区", "address": "黑龙江省绥化市北林区二中家属楼", "latitude": 46.64416, "longitude": 127.0081, "count": 1, "Size": "2.065", "Notes:": null, "field_10": null, "Source: CBN": null }, "geometry": { "type": "Point", "coordinates": [ 127.0081, 46.64416 ] } },
{ "type": "Feature", "properties": { "province": "黑龙江省", "city": "绥化市", "district": "北林区", "address": "黑龙江省绥化市北林区铁路司机学校家属楼", "latitude": 46.61994, "longitude": 126.9966, "count": 1, "Size": "2.065", "Notes:": null, "field_10": null, "Source: CBN": null }, "geometry": { "type": "Point", "coordinates": [ 126.9966, 46.61994 ] } },
{ "type": "Feature", "properties": { "province": "黑龙江省", "city": "绥化市", "district": "北林区", "address": "黑龙江省绥化市北林区广安西街人寿保险综合楼", "latitude": 46.63853, "longitude": 126.9966, "count": 1, "Size": "2.065", "Notes:": null, "field_10": null, "Source: CBN": null }, "geometry": { "type": "Point", "coordinates": [ 126.9966, 46.63853 ] } },
{ "type": "Feature", "properties": { "province": "黑龙江省", "city": "绥化市", "district": "北林区", "address": "黑龙江省绥化市北林区北三路嘉兴花园", "latitude": 46.64056, "longitude": 126.9936, "count": 2, "Size": "2.58316855", "Notes:": null, "field_10": null, "Source: CBN": null }, "geometry": { "type": "Point", "coordinates": [ 126.9936, 46.64056 ] } },
{ "type": "Feature", "properties": { "province": "黑龙江省", "city": "绥化市", "district": "北林区", "address": "黑龙江省绥化市北林区大福和城", "latitude": 46.64566, "longitude": 126.9899, "count": 1, "Size": "2.065", "Notes:": null, "field_10": null, "Source: CBN": null }, "geometry": { "type": "Point", "coordinates": [ 126.9899, 46.64566 ] } },
{ "type": "Feature", "properties": { "province": "黑龙江省", "city": "绥化市", "district": "北林区", "address": "黑龙江省绥化市北林区祥瑞新城西区", "latitude": 46.62162, "longitude": 126.9869, "count": 1, "Size": "2.065", "Notes:": null, "field_10": null, "Source: CBN": null }, "geometry": { "type": "Point", "coordinates": [ 126.9869, 46.62162 ] } },
{ "type": "Feature", "properties": { "province": "黑龙江省", "city": "绥化市", "district": "北林区", "address": "黑龙江省绥化市北林区南二建行小区", "latitude": 46.64053, "longitude": 126.9865, "count": 1, "Size": "2.065", "Notes:": null, "field_10": null, "Source: CBN": null }, "geometry": { "type": "Point", "coordinates": [ 126.9865, 46.64053 ] } },
{ "type": "Feature", "properties": { "province": "黑龙江省", "city": "绥化市", "district": "北林区", "address": "黑龙江省绥化市北林区正大胡同华建公司家属楼", "latitude": 46.65249, "longitude": 126.9848, "count": 1, "Size": "2.065", "Notes:": null, "field_10": null, "Source: CBN": null }, "geometry": { "type": "Point", "coordinates": [ 126.9848, 46.65249 ] } },
{ "type": "Feature", "properties": { "province": "黑龙江省", "city": "绥化市", "district": "北林区", "address": "黑龙江省绥化市北林区农行家属楼", "latitude": 46.62863, "longitude": 126.9837, "count": 1, "Size": "2.065", "Notes:": null, "field_10": null, "Source: CBN": null }, "geometry": { "type": "Point", "coordinates": [ 126.9837, 46.62863 ] } },
{ "type": "Feature", "properties": { "province": "黑龙江省", "city": "绥化市", "district": "北林区", "address": "黑龙江省绥化市北林区富电小区", "latitude": 46.62877, "longitude": 126.9811, "count": 1, "Size": "2.065", "Notes:": null, "field_10": null, "Source: CBN": null }, "geometry": { "type": "Point", "coordinates": [ 126.9811, 46.62877 ] } },
{ "type": "Feature", "properties": { "province": "黑龙江省", "city": "绥化市", "district": "北林区", "address": "黑龙江省绥化市北林区福顺家园", "latitude": 46.64594, "longitude": 126.9809, "count": 2, "Size": "2.58316855", "Notes:": null, "field_10": null, "Source: CBN": null }, "geometry": { "type": "Point", "coordinates": [ 126.9809, 46.64594 ] } },
{ "type": "Feature", "properties": { "province": "黑龙江省", "city": "绥化市", "district": "北林区", "address": "黑龙江省绥化市北林区福乾一期", "latitude": 46.64861, "longitude": 126.9673, "count": 1, "Size": "2.065", "Notes:": null, "field_10": null, "Source: CBN": null }, "geometry": { "type": "Point", "coordinates": [ 126.9673, 46.64861 ] } },
{ "type": "Feature", "properties": { "province": "黑龙江省", "city": "绥化市", "district": "北林区", "address": "黑龙江省绥化市北林区金鼎豪庭小区", "latitude": 46.66172, "longitude": 126.9625, "count": 1, "Size": "2.065", "Notes:": null, "field_10": null, "Source: CBN": null }, "geometry": { "type": "Point", "coordinates": [ 126.9625, 46.66172 ] } },
{ "type": "Feature", "properties": { "province": "黑龙江省", "city": "绥化市", "district": "北林区", "address": "黑龙江省绥化市北林区绥都府", "latitude": 46.64425, "longitude": 126.9604, "count": 3, "Size": "2.944626535", "Notes:": null, "field_10": null, "Source: CBN": null }, "geometry": { "type": "Point", "coordinates": [ 126.9604, 46.64425 ] } },
{ "type": "Feature", "properties": { "province": "黑龙江省", "city": "绥化市", "district": "兰西县", "address": "黑龙江省绥化市兰西县平山镇复兴村太平屯一队", "latitude": 44.93148, "longitude": 128.5946, "count": 1, "Size": "2.065", "Notes:": null, "field_10": null, "Source: CBN": null }, "geometry": { "type": "Point", "coordinates": [ 128.5946, 44.93148 ] } },
{ "type": "Feature", "properties": { "province": "黑龙江省", "city": "绥化市", "district": "兰西县", "address": "黑龙江省绥化市兰西县焦家岗屯", "latitude": 46.50034, "longitude": 126.4215, "count": 1, "Size": "2.065", "Notes:": null, "field_10": null, "Source: CBN": null }, "geometry": { "type": "Point", "coordinates": [ 126.4215, 46.50034 ] } },
{ "type": "Feature", "properties": { "province": "黑龙江省", "city": "绥化市", "district": "兰西县", "address": "黑龙江省绥化市兰西县复兴村一队（太平山屯）", "latitude": 46.39499, "longitude": 126.0897, "count": 1, "Size": "2.065", "Notes:": null, "field_10": null, "Source: CBN": null }, "geometry": { "type": "Point", "coordinates": [ 126.0897, 46.39499 ] } },
{ "type": "Feature", "properties": { "province": "黑龙江省", "city": "绥化市", "district": null, "address": null, "latitude": null, "longitude": null, "count": 47, "Size": "7.161560483", "Notes:": null, "field_10": null, "Source: CBN": null }, "geometry": null },
{ "type": "Feature", "properties": { "province": "黑龙江省", "city": "牡丹江市", "district": "阳明区", "address": "黑龙江省牡丹江市阳明区五林镇四岗村", "latitude": 44.75539, "longitude": 129.7795, "count": 1, "Size": "2.065", "Notes:": null, "field_10": null, "Source: CBN": null }, "geometry": { "type": "Point", "coordinates": [ 129.7795, 44.75539 ] } },
{ "type": "Feature", "properties": { "province": "黑龙江省", "city": "牡丹江市", "district": "阳明区", "address": "黑龙江省牡丹江市阳明区安居小区", "latitude": 44.59429, "longitude": 129.6356, "count": 1, "Size": "2.065", "Notes:": null, "field_10": null, "Source: CBN": null }, "geometry": { "type": "Point", "coordinates": [ 129.6356, 44.59429 ] } },
{ "type": "Feature", "properties": { "province": "黑龙江省", "city": "牡丹江市", "district": "西安区", "address": "黑龙江省牡丹江市西安区坤鹏家园小区", "latitude": 44.58805, "longitude": 129.6128, "count": 1, "Size": "2.065", "Notes:": null, "field_10": null, "Source: CBN": null }, "geometry": { "type": "Point", "coordinates": [ 129.6128, 44.58805 ] } },
{ "type": "Feature", "properties": { "province": "黑龙江省", "city": "牡丹江市", "district": "西安区", "address": "黑龙江省牡丹江市西安区北方五区", "latitude": 44.58004, "longitude": 129.6019, "count": 1, "Size": "2.065", "Notes:": null, "field_10": null, "Source: CBN": null }, "geometry": { "type": "Point", "coordinates": [ 129.6019, 44.58004 ] } },
{ "type": "Feature", "properties": { "province": "黑龙江省", "city": "牡丹江市", "district": "西安区", "address": "黑龙江省牡丹江市西安区北方六区", "latitude": 44.57884, "longitude": 129.6003, "count": 1, "Size": "2.065", "Notes:": null, "field_10": null, "Source: CBN": null }, "geometry": { "type": "Point", "coordinates": [ 129.6003, 44.57884 ] } },
{ "type": "Feature", "properties": { "province": "黑龙江省", "city": "牡丹江市", "district": "西安区", "address": "黑龙江省牡丹江市西安区西平安小区", "latitude": 44.57384, "longitude": 129.5917, "count": 1, "Size": "2.065", "Notes:": null, "field_10": null, "Source: CBN": null }, "geometry": { "type": "Point", "coordinates": [ 129.5917, 44.57384 ] } },
{ "type": "Feature", "properties": { "province": "黑龙江省", "city": "牡丹江市", "district": "爱民区", "address": "黑龙江省牡丹江市爱民区机电小区", "latitude": 44.59437, "longitude": 129.6148, "count": 1, "Size": "2.065", "Notes:": null, "field_10": null, "Source: CBN": null }, "geometry": { "type": "Point", "coordinates": [ 129.6148, 44.59437 ] } },
{ "type": "Feature", "properties": { "province": "黑龙江省", "city": "牡丹江市", "district": "爱民区", "address": "黑龙江省牡丹江市爱民区新荣小区", "latitude": 44.59373, "longitude": 129.6088, "count": 1, "Size": "2.065", "Notes:": null, "field_10": null, "Source: CBN": null }, "geometry": { "type": "Point", "coordinates": [ 129.6088, 44.59373 ] } },
{ "type": "Feature", "properties": { "province": "黑龙江省", "city": "牡丹江市", "district": "爱民区", "address": "黑龙江省牡丹江市爱民区黄花小区", "latitude": 44.5683, "longitude": 129.5694, "count": 3, "Size": "2.944626535", "Notes:": null, "field_10": null, "Source: CBN": null }, "geometry": { "type": "Point", "coordinates": [ 129.5694, 44.5683 ] } },
{ "type": "Feature", "properties": { "province": "黑龙江省", "city": "牡丹江市", "district": null, "address": null, "latitude": null, "longitude": null, "count": 14, "Size": "4.843055116", "Notes:": null, "field_10": null, "Source: CBN": null }, "geometry": null },
{ "type": "Feature", "properties": { "province": "黑龙江省", "city": "大庆市", "district": "让胡路区", "address": "黑龙江省大庆市让胡路区创业城小区16栋", "latitude": 46.53607, "longitude": 124.9004, "count": 2, "Size": "2.58316855", "Notes:": null, "field_10": null, "Source: CBN": null }, "geometry": { "type": "Point", "coordinates": [ 124.9004, 46.53607 ] } },
{ "type": "Feature", "properties": { "province": "黑龙江省", "city": "大庆市", "district": "让胡路区", "address": "黑龙江省大庆市让胡路区银南小区5—42号楼", "latitude": 46.49363, "longitude": 124.8668, "count": 1, "Size": "2.065", "Notes:": null, "field_10": null, "Source: CBN": null }, "geometry": { "type": "Point", "coordinates": [ 124.8668, 46.49363 ] } },
{ "type": "Feature", "properties": { "province": "黑龙江省", "city": "大庆市", "district": "让胡路区", "address": "黑龙江省大庆市让胡路区广厦小区F6栋", "latitude": 46.63525, "longitude": 124.8629, "count": 2, "Size": "2.58316855", "Notes:": null, "field_10": null, "Source: CBN": null }, "geometry": { "type": "Point", "coordinates": [ 124.8629, 46.63525 ] } },
{ "type": "Feature", "properties": { "province": "黑龙江省", "city": "大庆市", "district": "让胡路区", "address": "黑龙江省大庆市让胡路区广厦小区F6号楼", "latitude": 46.63299, "longitude": 124.8587, "count": 3, "Size": "2.944626535", "Notes:": null, "field_10": null, "Source: CBN": null }, "geometry": { "type": "Point", "coordinates": [ 124.8587, 46.63299 ] } },
{ "type": "Feature", "properties": { "province": "黑龙江省", "city": "大庆市", "district": "让胡路区", "address": "黑龙江省大庆市让胡路区阳光嘉城F3号楼", "latitude": 46.63643, "longitude": 124.8531, "count": 2, "Size": "2.58316855", "Notes:": null, "field_10": null, "Source: CBN": null }, "geometry": { "type": "Point", "coordinates": [ 124.8531, 46.63643 ] } },
{ "type": "Feature", "properties": { "province": "黑龙江省", "city": "大庆市", "district": "肇州县", "address": "黑龙江省大庆市肇州县九度阳光小区", "latitude": 45.71928, "longitude": 125.2712, "count": 1, "Size": "2.065", "Notes:": null, "field_10": null, "Source: CBN": null }, "geometry": { "type": "Point", "coordinates": [ 125.2712, 45.71928 ] } },
{ "type": "Feature", "properties": { "province": "黑龙江省", "city": "大庆市", "district": null, "address": null, "latitude": null, "longitude": null, "count": 26, "Size": "5.915023132", "Notes:": null, "field_10": null, "Source: CBN": null }, "geometry": null },
{ "type": "Feature", "properties": { "province": "黑龙江省", "city": "大兴安岭地区", "district": null, "address": null, "latitude": null, "longitude": null, "count": 2, "Size": "2.58316855", "Notes:": null, "field_10": null, "Source: CBN": null }, "geometry": null },
{ "type": "Feature", "properties": { "province": "黑龙江省", "city": "哈尔滨市", "district": "香坊区", "address": "黑龙江省哈尔滨市香坊区农大教师公寓6栋1单元", "latitude": 45.74318, "longitude": 126.7342, "count": 2, "Size": "2.58316855", "Notes:": null, "field_10": null, "Source: CBN": null }, "geometry": { "type": "Point", "coordinates": [ 126.7342, 45.74318 ] } },
{ "type": "Feature", "properties": { "province": "黑龙江省", "city": "哈尔滨市", "district": "香坊区", "address": "黑龙江省哈尔滨市香坊区农大教师公寓", "latitude": 45.74318, "longitude": 126.7342, "count": 1, "Size": "2.065", "Notes:": null, "field_10": null, "Source: CBN": null }, "geometry": { "type": "Point", "coordinates": [ 126.7342, 45.74318 ] } },
{ "type": "Feature", "properties": { "province": "黑龙江省", "city": "哈尔滨市", "district": "香坊区", "address": "黑龙江省哈尔滨市香坊区城东新居小区", "latitude": 45.73246, "longitude": 126.728, "count": 1, "Size": "2.065", "Notes:": null, "field_10": null, "Source: CBN": null }, "geometry": { "type": "Point", "coordinates": [ 126.728, 45.73246 ] } },
{ "type": "Feature", "properties": { "province": "黑龙江省", "city": "哈尔滨市", "district": "香坊区", "address": "黑龙江省哈尔滨市香坊区河畔花园2栋", "latitude": 45.72341, "longitude": 126.7239, "count": 1, "Size": "2.065", "Notes:": null, "field_10": null, "Source: CBN": null }, "geometry": { "type": "Point", "coordinates": [ 126.7239, 45.72341 ] } },
{ "type": "Feature", "properties": { "province": "黑龙江省", "city": "哈尔滨市", "district": "香坊区", "address": "黑龙江省哈尔滨市香坊区河畔花园2栋1单元", "latitude": 45.72341, "longitude": 126.7239, "count": 1, "Size": "2.065", "Notes:": null, "field_10": null, "Source: CBN": null }, "geometry": { "type": "Point", "coordinates": [ 126.7239, 45.72341 ] } },
{ "type": "Feature", "properties": { "province": "黑龙江省", "city": "哈尔滨市", "district": "香坊区", "address": "黑龙江省哈尔滨市香坊区泰新国典小区", "latitude": 45.74453, "longitude": 126.7104, "count": 1, "Size": "2.065", "Notes:": null, "field_10": null, "Source: CBN": null }, "geometry": { "type": "Point", "coordinates": [ 126.7104, 45.74453 ] } },
{ "type": "Feature", "properties": { "province": "黑龙江省", "city": "哈尔滨市", "district": "香坊区", "address": "黑龙江省哈尔滨市香坊区延福街2号", "latitude": 45.72756, "longitude": 126.7092, "count": 2, "Size": "2.58316855", "Notes:": null, "field_10": null, "Source: CBN": null }, "geometry": { "type": "Point", "coordinates": [ 126.7092, 45.72756 ] } },
{ "type": "Feature", "properties": { "province": "黑龙江省", "city": "哈尔滨市", "district": "香坊区", "address": "黑龙江省哈尔滨市香坊区赣南小区", "latitude": 45.73747, "longitude": 126.7057, "count": 2, "Size": "2.58316855", "Notes:": null, "field_10": null, "Source: CBN": null }, "geometry": { "type": "Point", "coordinates": [ 126.7057, 45.73747 ] } },
{ "type": "Feature", "properties": { "province": "黑龙江省", "city": "哈尔滨市", "district": "香坊区", "address": "黑龙江省哈尔滨市香坊区盛新领地小区", "latitude": 45.72552, "longitude": 126.7053, "count": 2, "Size": "2.58316855", "Notes:": null, "field_10": null, "Source: CBN": null }, "geometry": { "type": "Point", "coordinates": [ 126.7053, 45.72552 ] } },
{ "type": "Feature", "properties": { "province": "黑龙江省", "city": "哈尔滨市", "district": "香坊区", "address": "黑龙江省哈尔滨市香坊区市传染病院", "latitude": 45.73275, "longitude": 126.7032, "count": 1, "Size": "2.065", "Notes:": null, "field_10": null, "Source: CBN": null }, "geometry": { "type": "Point", "coordinates": [ 126.7032, 45.73275 ] } },
{ "type": "Feature", "properties": { "province": "黑龙江省", "city": "哈尔滨市", "district": "香坊区", "address": "黑龙江省哈尔滨市香坊区富水路122号3单元", "latitude": 45.74285, "longitude": 126.703, "count": 1, "Size": "2.065", "Notes:": null, "field_10": null, "Source: CBN": null }, "geometry": { "type": "Point", "coordinates": [ 126.703, 45.74285 ] } },
{ "type": "Feature", "properties": { "province": "黑龙江省", "city": "哈尔滨市", "district": "香坊区", "address": "黑龙江省哈尔滨市香坊区龙房小区3号楼5单元", "latitude": 45.73922, "longitude": 126.6994, "count": 2, "Size": "2.58316855", "Notes:": null, "field_10": null, "Source: CBN": null }, "geometry": { "type": "Point", "coordinates": [ 126.6994, 45.73922 ] } },
{ "type": "Feature", "properties": { "province": "黑龙江省", "city": "哈尔滨市", "district": "香坊区", "address": "黑龙江省哈尔滨市香坊区结构街29-3", "latitude": 45.69796, "longitude": 126.6961, "count": 1, "Size": "2.065", "Notes:": null, "field_10": null, "Source: CBN": null }, "geometry": { "type": "Point", "coordinates": [ 126.6961, 45.69796 ] } },
{ "type": "Feature", "properties": { "province": "黑龙江省", "city": "哈尔滨市", "district": "香坊区", "address": "黑龙江省哈尔滨市香坊区顺水小区", "latitude": 45.7322, "longitude": 126.6896, "count": 1, "Size": "2.065", "Notes:": null, "field_10": null, "Source: CBN": null }, "geometry": { "type": "Point", "coordinates": [ 126.6896, 45.7322 ] } },
{ "type": "Feature", "properties": { "province": "黑龙江省", "city": "哈尔滨市", "district": "香坊区", "address": "黑龙江省哈尔滨市香坊区菜艺街49号", "latitude": 45.7325, "longitude": 126.6839, "count": 4, "Size": "3.231360659", "Notes:": null, "field_10": null, "Source: CBN": null }, "geometry": { "type": "Point", "coordinates": [ 126.6839, 45.7325 ] } },
{ "type": "Feature", "properties": { "province": "黑龙江省", "city": "哈尔滨市", "district": "香坊区", "address": "黑龙江省哈尔滨市香坊区澜月东方18号楼1单元", "latitude": 45.69953, "longitude": 126.679, "count": 1, "Size": "2.065", "Notes:": null, "field_10": null, "Source: CBN": null }, "geometry": { "type": "Point", "coordinates": [ 126.679, 45.69953 ] } },
{ "type": "Feature", "properties": { "province": "黑龙江省", "city": "哈尔滨市", "district": "香坊区", "address": "黑龙江省哈尔滨市香坊区黎明荣府小区", "latitude": 45.68714, "longitude": 126.679, "count": 2, "Size": "2.58316855", "Notes:": null, "field_10": null, "Source: CBN": null }, "geometry": { "type": "Point", "coordinates": [ 126.679, 45.68714 ] } },
{ "type": "Feature", "properties": { "province": "黑龙江省", "city": "哈尔滨市", "district": "香坊区", "address": "黑龙江省哈尔滨市香坊区恒祥中山小区", "latitude": 45.72559, "longitude": 126.6719, "count": 1, "Size": "2.065", "Notes:": null, "field_10": null, "Source: CBN": null }, "geometry": { "type": "Point", "coordinates": [ 126.6719, 45.72559 ] } },
{ "type": "Feature", "properties": { "province": "黑龙江省", "city": "哈尔滨市", "district": "香坊区", "address": "黑龙江省哈尔滨市香坊区省医院", "latitude": 45.72947, "longitude": 126.6709, "count": 4, "Size": "3.231360659", "Notes:": null, "field_10": null, "Source: CBN": null }, "geometry": { "type": "Point", "coordinates": [ 126.6709, 45.72947 ] } },
{ "type": "Feature", "properties": { "province": "黑龙江省", "city": "哈尔滨市", "district": "香坊区", "address": "黑龙江省哈尔滨市香坊区香溪花园", "latitude": 45.7293, "longitude": 126.6691, "count": 1, "Size": "2.065", "Notes:": null, "field_10": null, "Source: CBN": null }, "geometry": { "type": "Point", "coordinates": [ 126.6691, 45.7293 ] } },
{ "type": "Feature", "properties": { "province": "黑龙江省", "city": "哈尔滨市", "district": "香坊区", "address": "黑龙江省哈尔滨市香坊区亚麻小区二道街10栋1单元", "latitude": 45.73543, "longitude": 126.6684, "count": 1, "Size": "2.065", "Notes:": null, "field_10": null, "Source: CBN": null }, "geometry": { "type": "Point", "coordinates": [ 126.6684, 45.73543 ] } },
{ "type": "Feature", "properties": { "province": "黑龙江省", "city": "哈尔滨市", "district": "香坊区", "address": "黑龙江省哈尔滨市香坊区亚麻小区", "latitude": 45.73543, "longitude": 126.6684, "count": 3, "Size": "2.944626535", "Notes:": null, "field_10": null, "Source: CBN": null }, "geometry": { "type": "Point", "coordinates": [ 126.6684, 45.73543 ] } },
{ "type": "Feature", "properties": { "province": "黑龙江省", "city": "哈尔滨市", "district": "香坊区", "address": "黑龙江省哈尔滨市香坊区丁香园小区9栋", "latitude": 45.73738, "longitude": 126.6662, "count": 1, "Size": "2.065", "Notes:": null, "field_10": null, "Source: CBN": null }, "geometry": { "type": "Point", "coordinates": [ 126.6662, 45.73738 ] } },
{ "type": "Feature", "properties": { "province": "黑龙江省", "city": "哈尔滨市", "district": "香坊区", "address": "黑龙江省哈尔滨市香坊区华侨名苑小区", "latitude": 45.72734, "longitude": 126.6577, "count": 2, "Size": "2.58316855", "Notes:": null, "field_10": null, "Source: CBN": null }, "geometry": { "type": "Point", "coordinates": [ 126.6577, 45.72734 ] } },
{ "type": "Feature", "properties": { "province": "黑龙江省", "city": "哈尔滨市", "district": "香坊区", "address": "黑龙江省哈尔滨市香坊区乐松小区", "latitude": 45.71848, "longitude": 126.6486, "count": 9, "Size": "4.198946938", "Notes:": null, "field_10": null, "Source: CBN": null }, "geometry": { "type": "Point", "coordinates": [ 126.6486, 45.71848 ] } },
{ "type": "Feature", "properties": { "province": "黑龙江省", "city": "哈尔滨市", "district": "香坊区", "address": "黑龙江省哈尔滨市香坊区乐松广场8号楼", "latitude": 45.71895, "longitude": 126.6483, "count": 1, "Size": "2.065", "Notes:": null, "field_10": null, "Source: CBN": null }, "geometry": { "type": "Point", "coordinates": [ 126.6483, 45.71895 ] } },
{ "type": "Feature", "properties": { "province": "黑龙江省", "city": "哈尔滨市", "district": "香坊区", "address": "黑龙江省哈尔滨市香坊区金地家园", "latitude": 45.72297, "longitude": 126.6468, "count": 1, "Size": "2.065", "Notes:": null, "field_10": null, "Source: CBN": null }, "geometry": { "type": "Point", "coordinates": [ 126.6468, 45.72297 ] } },
{ "type": "Feature", "properties": { "province": "黑龙江省", "city": "哈尔滨市", "district": "香坊区", "address": "黑龙江省哈尔滨市香坊区和兴路19号", "latitude": 45.7225, "longitude": 126.6467, "count": 1, "Size": "2.065", "Notes:": null, "field_10": null, "Source: CBN": null }, "geometry": { "type": "Point", "coordinates": [ 126.6467, 45.7225 ] } },
{ "type": "Feature", "properties": { "province": "黑龙江省", "city": "哈尔滨市", "district": "阿城区", "address": "黑龙江省哈尔滨市阿城区交通家园小区", "latitude": 45.55228, "longitude": 126.9775, "count": 4, "Size": "3.231360659", "Notes:": null, "field_10": null, "Source: CBN": null }, "geometry": { "type": "Point", "coordinates": [ 126.9775, 45.55228 ] } },
{ "type": "Feature", "properties": { "province": "黑龙江省", "city": "哈尔滨市", "district": "阿城区", "address": "黑龙江省哈尔滨市阿城区金都首府2号楼", "latitude": 45.52934, "longitude": 126.9726, "count": 1, "Size": "2.065", "Notes:": null, "field_10": null, "Source: CBN": null }, "geometry": { "type": "Point", "coordinates": [ 126.9726, 45.52934 ] } },
{ "type": "Feature", "properties": { "province": "黑龙江省", "city": "哈尔滨市", "district": "阿城区", "address": "黑龙江省哈尔滨市阿城区金都首府小区", "latitude": 45.53008, "longitude": 126.9719, "count": 1, "Size": "2.065", "Notes:": null, "field_10": null, "Source: CBN": null }, "geometry": { "type": "Point", "coordinates": [ 126.9719, 45.53008 ] } },
{ "type": "Feature", "properties": { "province": "黑龙江省", "city": "哈尔滨市", "district": "道里区", "address": "黑龙江省哈尔滨市道里区买卖街23号", "latitude": 45.76733, "longitude": 126.6324, "count": 1, "Size": "2.065", "Notes:": null, "field_10": null, "Source: CBN": null }, "geometry": { "type": "Point", "coordinates": [ 126.6324, 45.76733 ] } },
{ "type": "Feature", "properties": { "province": "黑龙江省", "city": "哈尔滨市", "district": "道里区", "address": "黑龙江省哈尔滨市道里区买卖街26号", "latitude": 45.7676, "longitude": 126.6318, "count": 2, "Size": "2.58316855", "Notes:": null, "field_10": null, "Source: CBN": null }, "geometry": { "type": "Point", "coordinates": [ 126.6318, 45.7676 ] } },
{ "type": "Feature", "properties": { "province": "黑龙江省", "city": "哈尔滨市", "district": "道里区", "address": "黑龙江省哈尔滨市道里区透笼街32号1单元", "latitude": 45.76973, "longitude": 126.6279, "count": 1, "Size": "2.065", "Notes:": null, "field_10": null, "Source: CBN": null }, "geometry": { "type": "Point", "coordinates": [ 126.6279, 45.76973 ] } },
{ "type": "Feature", "properties": { "province": "黑龙江省", "city": "哈尔滨市", "district": "道里区", "address": "黑龙江省哈尔滨市道里区朝阳胡同小区", "latitude": 45.7773, "longitude": 126.6275, "count": 1, "Size": "2.065", "Notes:": null, "field_10": null, "Source: CBN": null }, "geometry": { "type": "Point", "coordinates": [ 126.6275, 45.7773 ] } },
{ "type": "Feature", "properties": { "province": "黑龙江省", "city": "哈尔滨市", "district": "道里区", "address": "黑龙江省哈尔滨市道里区朝阳胡同5号楼", "latitude": 45.77692, "longitude": 126.6274, "count": 1, "Size": "2.065", "Notes:": null, "field_10": null, "Source: CBN": null }, "geometry": { "type": "Point", "coordinates": [ 126.6274, 45.77692 ] } },
{ "type": "Feature", "properties": { "province": "黑龙江省", "city": "哈尔滨市", "district": "道里区", "address": "黑龙江省哈尔滨市道里区地工街62号", "latitude": 45.75425, "longitude": 126.6241, "count": 2, "Size": "2.58316855", "Notes:": null, "field_10": null, "Source: CBN": null }, "geometry": { "type": "Point", "coordinates": [ 126.6241, 45.75425 ] } },
{ "type": "Feature", "properties": { "province": "黑龙江省", "city": "哈尔滨市", "district": "道里区", "address": "黑龙江省哈尔滨市道里区地德里小区405栋", "latitude": 45.75642, "longitude": 126.6233, "count": 1, "Size": "2.065", "Notes:": null, "field_10": null, "Source: CBN": null }, "geometry": { "type": "Point", "coordinates": [ 126.6233, 45.75642 ] } },
{ "type": "Feature", "properties": { "province": "黑龙江省", "city": "哈尔滨市", "district": "道里区", "address": "黑龙江省哈尔滨市道里区地德里小区201栋", "latitude": 45.75265, "longitude": 126.6174, "count": 1, "Size": "2.065", "Notes:": null, "field_10": null, "Source: CBN": null }, "geometry": { "type": "Point", "coordinates": [ 126.6174, 45.75265 ] } },
{ "type": "Feature", "properties": { "province": "黑龙江省", "city": "哈尔滨市", "district": "道里区", "address": "黑龙江省哈尔滨市道里区安心街138号", "latitude": 45.75351, "longitude": 126.6167, "count": 1, "Size": "2.065", "Notes:": null, "field_10": null, "Source: CBN": null }, "geometry": { "type": "Point", "coordinates": [ 126.6167, 45.75351 ] } },
{ "type": "Feature", "properties": { "province": "黑龙江省", "city": "哈尔滨市", "district": "道里区", "address": "黑龙江省哈尔滨市道里区安静街道安静街82号", "latitude": 45.75964, "longitude": 126.6134, "count": 1, "Size": "2.065", "Notes:": null, "field_10": null, "Source: CBN": null }, "geometry": { "type": "Point", "coordinates": [ 126.6134, 45.75964 ] } },
{ "type": "Feature", "properties": { "province": "黑龙江省", "city": "哈尔滨市", "district": "道里区", "address": "黑龙江省哈尔滨市道里区安定街93号", "latitude": 45.76116, "longitude": 126.6094, "count": 1, "Size": "2.065", "Notes:": null, "field_10": null, "Source: CBN": null }, "geometry": { "type": "Point", "coordinates": [ 126.6094, 45.76116 ] } },
{ "type": "Feature", "properties": { "province": "黑龙江省", "city": "哈尔滨市", "district": "道里区", "address": "黑龙江省哈尔滨市道里区光华小区36号楼", "latitude": 45.74593, "longitude": 126.6092, "count": 1, "Size": "2.065", "Notes:": null, "field_10": null, "Source: CBN": null }, "geometry": { "type": "Point", "coordinates": [ 126.6092, 45.74593 ] } },
{ "type": "Feature", "properties": { "province": "黑龙江省", "city": "哈尔滨市", "district": "道里区", "address": "黑龙江省哈尔滨市道里区花园小区", "latitude": 45.75973, "longitude": 126.5994, "count": 1, "Size": "2.065", "Notes:": null, "field_10": null, "Source: CBN": null }, "geometry": { "type": "Point", "coordinates": [ 126.5994, 45.75973 ] } },
{ "type": "Feature", "properties": { "province": "黑龙江省", "city": "哈尔滨市", "district": "道里区", "address": "黑龙江省哈尔滨市道里区哈药路406号", "latitude": 45.75946, "longitude": 126.5942, "count": 1, "Size": "2.065", "Notes:": null, "field_10": null, "Source: CBN": null }, "geometry": { "type": "Point", "coordinates": [ 126.5942, 45.75946 ] } },
{ "type": "Feature", "properties": { "province": "黑龙江省", "city": "哈尔滨市", "district": "道里区", "address": "黑龙江省哈尔滨市道里区河政花园46栋", "latitude": 45.75256, "longitude": 126.592, "count": 1, "Size": "2.065", "Notes:": null, "field_10": null, "Source: CBN": null }, "geometry": { "type": "Point", "coordinates": [ 126.592, 45.75256 ] } },
{ "type": "Feature", "properties": { "province": "黑龙江省", "city": "哈尔滨市", "district": "道里区", "address": "黑龙江省哈尔滨市道里区海富康城小区", "latitude": 45.74033, "longitude": 126.5826, "count": 1, "Size": "2.065", "Notes:": null, "field_10": null, "Source: CBN": null }, "geometry": { "type": "Point", "coordinates": [ 126.5826, 45.74033 ] } },
{ "type": "Feature", "properties": { "province": "黑龙江省", "city": "哈尔滨市", "district": "道里区", "address": "黑龙江省哈尔滨市道里区丽水雅居A1栋", "latitude": 45.73064, "longitude": 126.58, "count": 2, "Size": "2.58316855", "Notes:": null, "field_10": null, "Source: CBN": null }, "geometry": { "type": "Point", "coordinates": [ 126.58, 45.73064 ] } },
{ "type": "Feature", "properties": { "province": "黑龙江省", "city": "哈尔滨市", "district": "道里区", "address": "黑龙江省哈尔滨市道里区玫瑰湾小区D5栋", "latitude": 45.72778, "longitude": 126.5644, "count": 1, "Size": "2.065", "Notes:": null, "field_10": null, "Source: CBN": null }, "geometry": { "type": "Point", "coordinates": [ 126.5644, 45.72778 ] } },
{ "type": "Feature", "properties": { "province": "黑龙江省", "city": "哈尔滨市", "district": "道里区", "address": "黑龙江省哈尔滨市道里区翠湖天地璞园", "latitude": 45.73059, "longitude": 126.542, "count": 2, "Size": "2.58316855", "Notes:": null, "field_10": null, "Source: CBN": null }, "geometry": { "type": "Point", "coordinates": [ 126.542, 45.73059 ] } },
{ "type": "Feature", "properties": { "province": "黑龙江省", "city": "哈尔滨市", "district": "道里区", "address": "黑龙江省哈尔滨市道里区寰宇天下小区", "latitude": 45.72336, "longitude": 126.5415, "count": 1, "Size": "2.065", "Notes:": null, "field_10": null, "Source: CBN": null }, "geometry": { "type": "Point", "coordinates": [ 126.5415, 45.72336 ] } },
{ "type": "Feature", "properties": { "province": "黑龙江省", "city": "哈尔滨市", "district": "道里区", "address": "黑龙江省哈尔滨市道里区群力翠湖天地翠园", "latitude": 45.73033, "longitude": 126.5385, "count": 1, "Size": "2.065", "Notes:": null, "field_10": null, "Source: CBN": null }, "geometry": { "type": "Point", "coordinates": [ 126.5385, 45.73033 ] } },
{ "type": "Feature", "properties": { "province": "黑龙江省", "city": "哈尔滨市", "district": "道里区", "address": "黑龙江省哈尔滨市道里区群力招商贝肯山小区三期", "latitude": 45.73941, "longitude": 126.5375, "count": 1, "Size": "2.065", "Notes:": null, "field_10": null, "Source: CBN": null }, "geometry": { "type": "Point", "coordinates": [ 126.5375, 45.73941 ] } },
{ "type": "Feature", "properties": { "province": "黑龙江省", "city": "哈尔滨市", "district": "道里区", "address": "黑龙江省哈尔滨市道里区群力招商贝肯山小区", "latitude": 45.74488, "longitude": 126.537, "count": 1, "Size": "2.065", "Notes:": null, "field_10": null, "Source: CBN": null }, "geometry": { "type": "Point", "coordinates": [ 126.537, 45.74488 ] } },
{ "type": "Feature", "properties": { "province": "黑龙江省", "city": "哈尔滨市", "district": "道里区", "address": "黑龙江省哈尔滨市道里区民生尚都瑞园", "latitude": 45.71976, "longitude": 126.5233, "count": 1, "Size": "2.065", "Notes:": null, "field_10": null, "Source: CBN": null }, "geometry": { "type": "Point", "coordinates": [ 126.5233, 45.71976 ] } },
{ "type": "Feature", "properties": { "province": "黑龙江省", "city": "哈尔滨市", "district": "道里区", "address": "黑龙江省哈尔滨市道里区民生尚都小区20栋", "latitude": 45.72118, "longitude": 126.5197, "count": 1, "Size": "2.065", "Notes:": null, "field_10": null, "Source: CBN": null }, "geometry": { "type": "Point", "coordinates": [ 126.5197, 45.72118 ] } },
{ "type": "Feature", "properties": { "province": "黑龙江省", "city": "哈尔滨市", "district": "道里区", "address": "黑龙江省哈尔滨市道里区新发镇和平村和旺街", "latitude": 45.66917, "longitude": 126.3546, "count": 1, "Size": "2.065", "Notes:": null, "field_10": null, "Source: CBN": null }, "geometry": { "type": "Point", "coordinates": [ 126.3546, 45.66917 ] } },
{ "type": "Feature", "properties": { "province": "黑龙江省", "city": "哈尔滨市", "district": "道外区", "address": "黑龙江省哈尔滨市道外区地铁家园小区", "latitude": 45.79323, "longitude": 126.7178, "count": 2, "Size": "2.58316855", "Notes:": null, "field_10": null, "Source: CBN": null }, "geometry": { "type": "Point", "coordinates": [ 126.7178, 45.79323 ] } },
{ "type": "Feature", "properties": { "province": "黑龙江省", "city": "哈尔滨市", "district": "道外区", "address": "黑龙江省哈尔滨市道外区和平小区24栋", "latitude": 45.76563, "longitude": 126.7096, "count": 4, "Size": "3.231360659", "Notes:": null, "field_10": null, "Source: CBN": null }, "geometry": { "type": "Point", "coordinates": [ 126.7096, 45.76563 ] } },
{ "type": "Feature", "properties": { "province": "黑龙江省", "city": "哈尔滨市", "district": "道外区", "address": "黑龙江省哈尔滨市道外区桦树家园", "latitude": 45.78789, "longitude": 126.702, "count": 1, "Size": "2.065", "Notes:": null, "field_10": null, "Source: CBN": null }, "geometry": { "type": "Point", "coordinates": [ 126.702, 45.78789 ] } },
{ "type": "Feature", "properties": { "province": "黑龙江省", "city": "哈尔滨市", "district": "道外区", "address": "黑龙江省哈尔滨市道外区哈尔滨市第四医院", "latitude": 45.78942, "longitude": 126.6545, "count": 1, "Size": "2.065", "Notes:": null, "field_10": null, "Source: CBN": null }, "geometry": { "type": "Point", "coordinates": [ 126.6545, 45.78942 ] } },
{ "type": "Feature", "properties": { "province": "黑龙江省", "city": "哈尔滨市", "district": "道外区", "address": "黑龙江省哈尔滨市道外区保障街108号", "latitude": 45.77782, "longitude": 126.6539, "count": 2, "Size": "2.58316855", "Notes:": null, "field_10": null, "Source: CBN": null }, "geometry": { "type": "Point", "coordinates": [ 126.6539, 45.77782 ] } },
{ "type": "Feature", "properties": { "province": "黑龙江省", "city": "哈尔滨市", "district": "道外区", "address": "黑龙江省哈尔滨市道外区丽兹江畔小区3号楼", "latitude": 45.79408, "longitude": 126.6511, "count": 1, "Size": "2.065", "Notes:": null, "field_10": null, "Source: CBN": null }, "geometry": { "type": "Point", "coordinates": [ 126.6511, 45.79408 ] } },
{ "type": "Feature", "properties": { "province": "黑龙江省", "city": "哈尔滨市", "district": "道外区", "address": "黑龙江省哈尔滨市道外区南极国际三期15栋", "latitude": 45.77083, "longitude": 126.6507, "count": 3, "Size": "2.944626535", "Notes:": null, "field_10": null, "Source: CBN": null }, "geometry": { "type": "Point", "coordinates": [ 126.6507, 45.77083 ] } },
{ "type": "Feature", "properties": { "province": "黑龙江省", "city": "哈尔滨市", "district": "道外区", "address": "黑龙江省哈尔滨市道外区南极国际三期15号楼2单元", "latitude": 45.77082, "longitude": 126.6507, "count": 1, "Size": "2.065", "Notes:": null, "field_10": null, "Source: CBN": null }, "geometry": { "type": "Point", "coordinates": [ 126.6507, 45.77082 ] } },
{ "type": "Feature", "properties": { "province": "黑龙江省", "city": "哈尔滨市", "district": "道外区", "address": "黑龙江省哈尔滨市道外区宝宇三期14栋", "latitude": 45.78041, "longitude": 126.6363, "count": 1, "Size": "2.065", "Notes:": null, "field_10": null, "Source: CBN": null }, "geometry": { "type": "Point", "coordinates": [ 126.6363, 45.78041 ] } },
{ "type": "Feature", "properties": { "province": "黑龙江省", "city": "哈尔滨市", "district": "道外区", "address": "黑龙江省哈尔滨市道外区西开原二道街17号3号楼", "latitude": 45.77089, "longitude": 126.6345, "count": 1, "Size": "2.065", "Notes:": null, "field_10": null, "Source: CBN": null }, "geometry": { "type": "Point", "coordinates": [ 126.6345, 45.77089 ] } },
{ "type": "Feature", "properties": { "province": "黑龙江省", "city": "哈尔滨市", "district": "道外区", "address": "黑龙江省哈尔滨市道外区西开元二道街17号", "latitude": 45.77089, "longitude": 126.6345, "count": 1, "Size": "2.065", "Notes:": null, "field_10": null, "Source: CBN": null }, "geometry": { "type": "Point", "coordinates": [ 126.6345, 45.77089 ] } },
{ "type": "Feature", "properties": { "province": "黑龙江省", "city": "哈尔滨市", "district": "道外区", "address": "黑龙江省哈尔滨市道外区宝宇天邑澜山", "latitude": 45.77922, "longitude": 126.6332, "count": 4, "Size": "3.231360659", "Notes:": null, "field_10": null, "Source: CBN": null }, "geometry": { "type": "Point", "coordinates": [ 126.6332, 45.77922 ] } },
{ "type": "Feature", "properties": { "province": "黑龙江省", "city": "哈尔滨市", "district": "道外区", "address": "黑龙江省哈尔滨市道外区宝宇天邑澜湾", "latitude": 45.78179, "longitude": 126.6321, "count": 1, "Size": "2.065", "Notes:": null, "field_10": null, "Source: CBN": null }, "geometry": { "type": "Point", "coordinates": [ 126.6321, 45.78179 ] } },
{ "type": "Feature", "properties": { "province": "黑龙江省", "city": "哈尔滨市", "district": "道外区", "address": "黑龙江省哈尔滨市道外区宝宇天邑澜山2号楼", "latitude": 45.7776, "longitude": 126.6318, "count": 1, "Size": "2.065", "Notes:": null, "field_10": null, "Source: CBN": null }, "geometry": { "type": "Point", "coordinates": [ 126.6318, 45.7776 ] } },
{ "type": "Feature", "properties": { "province": "黑龙江省", "city": "哈尔滨市", "district": "松北区", "address": "黑龙江省哈尔滨市松北区师大嘉园小区", "latitude": 45.86352, "longitude": 126.5471, "count": 1, "Size": "2.065", "Notes:": null, "field_10": null, "Source: CBN": null }, "geometry": { "type": "Point", "coordinates": [ 126.5471, 45.86352 ] } },
{ "type": "Feature", "properties": { "province": "黑龙江省", "city": "哈尔滨市", "district": "木兰县", "address": "黑龙江省哈尔滨市木兰县东南村家园小区二期", "latitude": 46.37972, "longitude": 127.8798, "count": 1, "Size": "2.065", "Notes:": null, "field_10": null, "Source: CBN": null }, "geometry": { "type": "Point", "coordinates": [ 127.8798, 46.37972 ] } },
{ "type": "Feature", "properties": { "province": "黑龙江省", "city": "哈尔滨市", "district": "木兰县", "address": "黑龙江省哈尔滨市木兰县付家屯", "latitude": 46.9249, "longitude": 125.9149, "count": 1, "Size": "2.065", "Notes:": null, "field_10": null, "Source: CBN": null }, "geometry": { "type": "Point", "coordinates": [ 125.9149, 46.9249 ] } },
{ "type": "Feature", "properties": { "province": "黑龙江省", "city": "哈尔滨市", "district": "方正县", "address": "黑龙江省哈尔滨市方正县博汇阳光小区", "latitude": 45.84646, "longitude": 128.8309, "count": 2, "Size": "2.58316855", "Notes:": null, "field_10": null, "Source: CBN": null }, "geometry": { "type": "Point", "coordinates": [ 128.8309, 45.84646 ] } },
{ "type": "Feature", "properties": { "province": "黑龙江省", "city": "哈尔滨市", "district": "方正县", "address": "黑龙江省哈尔滨市方正县博汇小区", "latitude": 45.8464, "longitude": 128.8305, "count": 4, "Size": "3.231360659", "Notes:": null, "field_10": null, "Source: CBN": null }, "geometry": { "type": "Point", "coordinates": [ 128.8305, 45.8464 ] } },
{ "type": "Feature", "properties": { "province": "黑龙江省", "city": "哈尔滨市", "district": "方正县", "address": "黑龙江省哈尔滨市方正县同庆小区2号楼", "latitude": 45.84473, "longitude": 128.8296, "count": 1, "Size": "2.065", "Notes:": null, "field_10": null, "Source: CBN": null }, "geometry": { "type": "Point", "coordinates": [ 128.8296, 45.84473 ] } },
{ "type": "Feature", "properties": { "province": "黑龙江省", "city": "哈尔滨市", "district": "方正县", "address": "黑龙江省哈尔滨市方正县龙兴小区2期4号楼", "latitude": 45.83985, "longitude": 128.8286, "count": 1, "Size": "2.065", "Notes:": null, "field_10": null, "Source: CBN": null }, "geometry": { "type": "Point", "coordinates": [ 128.8286, 45.83985 ] } },
{ "type": "Feature", "properties": { "province": "黑龙江省", "city": "哈尔滨市", "district": "方正县", "address": "黑龙江省哈尔滨市方正县爱建宜居4号楼", "latitude": 45.83782, "longitude": 128.8261, "count": 2, "Size": "2.58316855", "Notes:": null, "field_10": null, "Source: CBN": null }, "geometry": { "type": "Point", "coordinates": [ 128.8261, 45.83782 ] } },
{ "type": "Feature", "properties": { "province": "黑龙江省", "city": "哈尔滨市", "district": "巴彦县", "address": "黑龙江省哈尔滨市巴彦县金泰家园1期", "latitude": 46.08311, "longitude": 127.3913, "count": 1, "Size": "2.065", "Notes:": null, "field_10": null, "Source: CBN": null }, "geometry": { "type": "Point", "coordinates": [ 127.3913, 46.08311 ] } },
{ "type": "Feature", "properties": { "province": "黑龙江省", "city": "哈尔滨市", "district": "巴彦县", "address": "黑龙江省哈尔滨市巴彦县华山乡少陵村", "latitude": 46.18522, "longitude": 127.3516, "count": 1, "Size": "2.065", "Notes:": null, "field_10": null, "Source: CBN": null }, "geometry": { "type": "Point", "coordinates": [ 127.3516, 46.18522 ] } },
{ "type": "Feature", "properties": { "province": "黑龙江省", "city": "哈尔滨市", "district": "巴彦县", "address": "黑龙江省哈尔滨市巴彦县春发村", "latitude": 46.1729, "longitude": 127.2386, "count": 5, "Size": "3.47286073", "Notes:": null, "field_10": null, "Source: CBN": null }, "geometry": { "type": "Point", "coordinates": [ 127.2386, 46.1729 ] } },
{ "type": "Feature", "properties": { "province": "黑龙江省", "city": "哈尔滨市", "district": "巴彦县", "address": "黑龙江省哈尔滨市巴彦县人寿保险小区", "latitude": 44.91835, "longitude": 127.1608, "count": 1, "Size": "2.065", "Notes:": null, "field_10": null, "Source: CBN": null }, "geometry": { "type": "Point", "coordinates": [ 127.1608, 44.91835 ] } },
{ "type": "Feature", "properties": { "province": "黑龙江省", "city": "哈尔滨市", "district": "尚志市", "address": "黑龙江省哈尔滨市尚志市亚布力九丰家园小区", "latitude": 44.93134, "longitude": 128.6191, "count": 11, "Size": "4.480122544", "Notes:": null, "field_10": null, "Source: CBN": null }, "geometry": { "type": "Point", "coordinates": [ 128.6191, 44.93134 ] } },
{ "type": "Feature", "properties": { "province": "黑龙江省", "city": "哈尔滨市", "district": "尚志市", "address": "黑龙江省哈尔滨市尚志市林业局学子家园小区", "latitude": 44.9531, "longitude": 128.6161, "count": 1, "Size": "2.065", "Notes:": null, "field_10": null, "Source: CBN": null }, "geometry": { "type": "Point", "coordinates": [ 128.6161, 44.9531 ] } },
{ "type": "Feature", "properties": { "province": "黑龙江省", "city": "哈尔滨市", "district": "尚志市", "address": "黑龙江省哈尔滨市尚志市亚布力生态小区", "latitude": 44.93375, "longitude": 128.6142, "count": 1, "Size": "2.065", "Notes:": null, "field_10": null, "Source: CBN": null }, "geometry": { "type": "Point", "coordinates": [ 128.6142, 44.93375 ] } },
{ "type": "Feature", "properties": { "province": "黑龙江省", "city": "哈尔滨市", "district": "尚志市", "address": "黑龙江省哈尔滨市尚志市站前综合楼", "latitude": 44.92877, "longitude": 128.6141, "count": 2, "Size": "2.58316855", "Notes:": null, "field_10": null, "Source: CBN": null }, "geometry": { "type": "Point", "coordinates": [ 128.6141, 44.92877 ] } },
{ "type": "Feature", "properties": { "province": "黑龙江省", "city": "哈尔滨市", "district": "尚志市", "address": "黑龙江省哈尔滨市尚志市和平路", "latitude": 44.93097, "longitude": 128.6081, "count": 1, "Size": "2.065", "Notes:": null, "field_10": null, "Source: CBN": null }, "geometry": { "type": "Point", "coordinates": [ 128.6081, 44.93097 ] } },
{ "type": "Feature", "properties": { "province": "黑龙江省", "city": "哈尔滨市", "district": "尚志市", "address": "黑龙江省哈尔滨市尚志市新建委", "latitude": 44.93233, "longitude": 128.5941, "count": 1, "Size": "2.065", "Notes:": null, "field_10": null, "Source: CBN": null }, "geometry": { "type": "Point", "coordinates": [ 128.5941, 44.93233 ] } },
{ "type": "Feature", "properties": { "province": "黑龙江省", "city": "哈尔滨市", "district": "尚志市", "address": "黑龙江省哈尔滨市尚志市致富委", "latitude": 44.93213, "longitude": 128.594, "count": 1, "Size": "2.065", "Notes:": null, "field_10": null, "Source: CBN": null }, "geometry": { "type": "Point", "coordinates": [ 128.594, 44.93213 ] } },
{ "type": "Feature", "properties": { "province": "黑龙江省", "city": "哈尔滨市", "district": "尚志市", "address": "黑龙江省哈尔滨市尚志市生态小区", "latitude": 44.93218, "longitude": 128.5926, "count": 2, "Size": "2.58316855", "Notes:": null, "field_10": null, "Source: CBN": null }, "geometry": { "type": "Point", "coordinates": [ 128.5926, 44.93218 ] } },
{ "type": "Feature", "properties": { "province": "黑龙江省", "city": "哈尔滨市", "district": "尚志市", "address": "黑龙江省哈尔滨市尚志市尚礼村双合屯", "latitude": 44.86811, "longitude": 128.5394, "count": 1, "Size": "2.065", "Notes:": null, "field_10": null, "Source: CBN": null }, "geometry": { "type": "Point", "coordinates": [ 128.5394, 44.86811 ] } },
{ "type": "Feature", "properties": { "province": "黑龙江省", "city": "哈尔滨市", "district": "尚志市", "address": "黑龙江省哈尔滨市尚志市孟家村板子房屯", "latitude": 45.17483, "longitude": 127.4659, "count": 3, "Size": "2.944626535", "Notes:": null, "field_10": null, "Source: CBN": null }, "geometry": { "type": "Point", "coordinates": [ 127.4659, 45.17483 ] } },
{ "type": "Feature", "properties": { "province": "黑龙江省", "city": "哈尔滨市", "district": "呼兰区", "address": "黑龙江省哈尔滨市呼兰区师大家园小区", "latitude": 45.86352, "longitude": 126.5471, "count": 2, "Size": "2.58316855", "Notes:": null, "field_10": null, "Source: CBN": null }, "geometry": { "type": "Point", "coordinates": [ 126.5471, 45.86352 ] } },
{ "type": "Feature", "properties": { "province": "黑龙江省", "city": "哈尔滨市", "district": "双城区", "address": "黑龙江省哈尔滨市双城区新红村", "latitude": 45.53733, "longitude": 126.5282, "count": 1, "Size": "2.065", "Notes:": null, "field_10": null, "Source: CBN": null }, "geometry": { "type": "Point", "coordinates": [ 126.5282, 45.53733 ] } },
{ "type": "Feature", "properties": { "province": "黑龙江省", "city": "哈尔滨市", "district": "双城区", "address": "黑龙江省哈尔滨市双城区银行名苑小区", "latitude": 45.37096, "longitude": 126.314, "count": 1, "Size": "2.065", "Notes:": null, "field_10": null, "Source: CBN": null }, "geometry": { "type": "Point", "coordinates": [ 126.314, 45.37096 ] } },
{ "type": "Feature", "properties": { "province": "黑龙江省", "city": "哈尔滨市", "district": "南岗区", "address": "黑龙江省哈尔滨市南岗区信恒现代城小区", "latitude": 45.75866, "longitude": 126.7127, "count": 1, "Size": "2.065", "Notes:": null, "field_10": null, "Source: CBN": null }, "geometry": { "type": "Point", "coordinates": [ 126.7127, 45.75866 ] } },
{ "type": "Feature", "properties": { "province": "黑龙江省", "city": "哈尔滨市", "district": "南岗区", "address": "黑龙江省哈尔滨市南岗区信恒现代城西栋", "latitude": 45.75677, "longitude": 126.7123, "count": 1, "Size": "2.065", "Notes:": null, "field_10": null, "Source: CBN": null }, "geometry": { "type": "Point", "coordinates": [ 126.7123, 45.75677 ] } },
{ "type": "Feature", "properties": { "province": "黑龙江省", "city": "哈尔滨市", "district": "南岗区", "address": "黑龙江省哈尔滨市南岗区软件园小区", "latitude": 45.74261, "longitude": 126.703, "count": 4, "Size": "3.231360659", "Notes:": null, "field_10": null, "Source: CBN": null }, "geometry": { "type": "Point", "coordinates": [ 126.703, 45.74261 ] } },
{ "type": "Feature", "properties": { "province": "黑龙江省", "city": "哈尔滨市", "district": "南岗区", "address": "黑龙江省哈尔滨市南岗区拉林小区", "latitude": 45.747608, "longitude": 126.69928, "count": 1, "Size": "2.065", "Notes:": null, "field_10": null, "Source: CBN": null }, "geometry": { "type": "Point", "coordinates": [ 126.69928, 45.747608 ] } },
{ "type": "Feature", "properties": { "province": "黑龙江省", "city": "哈尔滨市", "district": "南岗区", "address": "黑龙江省哈尔滨市南岗区锋华城", "latitude": 45.76484, "longitude": 126.6787, "count": 1, "Size": "2.065", "Notes:": null, "field_10": null, "Source: CBN": null }, "geometry": { "type": "Point", "coordinates": [ 126.6787, 45.76484 ] } },
{ "type": "Feature", "properties": { "province": "黑龙江省", "city": "哈尔滨市", "district": "南岗区", "address": "黑龙江省哈尔滨市南岗区军工龙军小区", "latitude": 45.773, "longitude": 126.671, "count": 1, "Size": "2.065", "Notes:": null, "field_10": null, "Source: CBN": null }, "geometry": { "type": "Point", "coordinates": [ 126.671, 45.773 ] } },
{ "type": "Feature", "properties": { "province": "黑龙江省", "city": "哈尔滨市", "district": "南岗区", "address": "黑龙江省哈尔滨市南岗区文化家园小区", "latitude": 45.77662, "longitude": 126.6669, "count": 2, "Size": "2.58316855", "Notes:": null, "field_10": null, "Source: CBN": null }, "geometry": { "type": "Point", "coordinates": [ 126.6669, 45.77662 ] } },
{ "type": "Feature", "properties": { "province": "黑龙江省", "city": "哈尔滨市", "district": "南岗区", "address": "黑龙江省哈尔滨市南岗区鼎新三道街42号", "latitude": 45.76749, "longitude": 126.6663, "count": 1, "Size": "2.065", "Notes:": null, "field_10": null, "Source: CBN": null }, "geometry": { "type": "Point", "coordinates": [ 126.6663, 45.76749 ] } },
{ "type": "Feature", "properties": { "province": "黑龙江省", "city": "哈尔滨市", "district": "南岗区", "address": "黑龙江省哈尔滨市南岗区哈医大一院", "latitude": 45.76543, "longitude": 126.6512, "count": 1, "Size": "2.065", "Notes:": null, "field_10": null, "Source: CBN": null }, "geometry": { "type": "Point", "coordinates": [ 126.6512, 45.76543 ] } },
{ "type": "Feature", "properties": { "province": "黑龙江省", "city": "哈尔滨市", "district": "南岗区", "address": "黑龙江省哈尔滨市南岗区文景街111号小区", "latitude": 45.74447, "longitude": 126.6503, "count": 1, "Size": "2.065", "Notes:": null, "field_10": null, "Source: CBN": null }, "geometry": { "type": "Point", "coordinates": [ 126.6503, 45.74447 ] } },
{ "type": "Feature", "properties": { "province": "黑龙江省", "city": "哈尔滨市", "district": "南岗区", "address": "黑龙江省哈尔滨市南岗区文景街59号", "latitude": 45.73703, "longitude": 126.6495, "count": 1, "Size": "2.065", "Notes:": null, "field_10": null, "Source: CBN": null }, "geometry": { "type": "Point", "coordinates": [ 126.6495, 45.73703 ] } },
{ "type": "Feature", "properties": { "province": "黑龙江省", "city": "哈尔滨市", "district": "南岗区", "address": "黑龙江省哈尔滨市南岗区文海溪畔小区", "latitude": 45.74657, "longitude": 126.6482, "count": 2, "Size": "2.58316855", "Notes:": null, "field_10": null, "Source: CBN": null }, "geometry": { "type": "Point", "coordinates": [ 126.6482, 45.74657 ] } },
{ "type": "Feature", "properties": { "province": "黑龙江省", "city": "哈尔滨市", "district": "南岗区", "address": "黑龙江省哈尔滨市南岗区文海西畔3号楼", "latitude": 45.74718, "longitude": 126.6463, "count": 1, "Size": "2.065", "Notes:": null, "field_10": null, "Source: CBN": null }, "geometry": { "type": "Point", "coordinates": [ 126.6463, 45.74718 ] } },
{ "type": "Feature", "properties": { "province": "黑龙江省", "city": "哈尔滨市", "district": "南岗区", "address": "黑龙江省哈尔滨市南岗区盟科涵舍1号楼", "latitude": 45.70235, "longitude": 126.6372, "count": 1, "Size": "2.065", "Notes:": null, "field_10": null, "Source: CBN": null }, "geometry": { "type": "Point", "coordinates": [ 126.6372, 45.70235 ] } },
{ "type": "Feature", "properties": { "province": "黑龙江省", "city": "哈尔滨市", "district": "南岗区", "address": "黑龙江省哈尔滨市南岗区大众新城11栋", "latitude": 45.69323, "longitude": 126.6355, "count": 3, "Size": "2.944626535", "Notes:": null, "field_10": null, "Source: CBN": null }, "geometry": { "type": "Point", "coordinates": [ 126.6355, 45.69323 ] } },
{ "type": "Feature", "properties": { "province": "黑龙江省", "city": "哈尔滨市", "district": "南岗区", "address": "黑龙江省哈尔滨市南岗区鲁商凤凰城", "latitude": 45.68432, "longitude": 126.6319, "count": 3, "Size": "2.944626535", "Notes:": null, "field_10": null, "Source: CBN": null }, "geometry": { "type": "Point", "coordinates": [ 126.6319, 45.68432 ] } },
{ "type": "Feature", "properties": { "province": "黑龙江省", "city": "哈尔滨市", "district": "南岗区", "address": "黑龙江省哈尔滨市南岗区大众新城二期203栋", "latitude": 45.69312, "longitude": 126.6315, "count": 2, "Size": "2.58316855", "Notes:": null, "field_10": null, "Source: CBN": null }, "geometry": { "type": "Point", "coordinates": [ 126.6315, 45.69312 ] } },
{ "type": "Feature", "properties": { "province": "黑龙江省", "city": "哈尔滨市", "district": "南岗区", "address": "黑龙江省哈尔滨市南岗区大众新城小区二期", "latitude": 45.69319, "longitude": 126.6314, "count": 1, "Size": "2.065", "Notes:": null, "field_10": null, "Source: CBN": null }, "geometry": { "type": "Point", "coordinates": [ 126.6314, 45.69319 ] } },
{ "type": "Feature", "properties": { "province": "黑龙江省", "city": "哈尔滨市", "district": "南岗区", "address": "黑龙江省哈尔滨市南岗区鲁商凤凰城2号楼", "latitude": 45.68286, "longitude": 126.6295, "count": 2, "Size": "2.58316855", "Notes:": null, "field_10": null, "Source: CBN": null }, "geometry": { "type": "Point", "coordinates": [ 126.6295, 45.68286 ] } },
{ "type": "Feature", "properties": { "province": "黑龙江省", "city": "哈尔滨市", "district": "南岗区", "address": "黑龙江省哈尔滨市南岗区科大小区", "latitude": 45.7157, "longitude": 126.6275, "count": 1, "Size": "2.065", "Notes:": null, "field_10": null, "Source: CBN": null }, "geometry": { "type": "Point", "coordinates": [ 126.6275, 45.7157 ] } },
{ "type": "Feature", "properties": { "province": "黑龙江省", "city": "哈尔滨市", "district": "南岗区", "address": "黑龙江省哈尔滨市南岗区鲁商松江新城", "latitude": 45.6812, "longitude": 126.6262, "count": 2, "Size": "2.58316855", "Notes:": null, "field_10": null, "Source: CBN": null }, "geometry": { "type": "Point", "coordinates": [ 126.6262, 45.6812 ] } },
{ "type": "Feature", "properties": { "province": "黑龙江省", "city": "哈尔滨市", "district": "南岗区", "address": "黑龙江省哈尔滨市南岗区八元小区8号楼", "latitude": 45.73211, "longitude": 126.6256, "count": 1, "Size": "2.065", "Notes:": null, "field_10": null, "Source: CBN": null }, "geometry": { "type": "Point", "coordinates": [ 126.6256, 45.73211 ] } },
{ "type": "Feature", "properties": { "province": "黑龙江省", "city": "哈尔滨市", "district": "南岗区", "address": "黑龙江省哈尔滨市南岗区八元小区", "latitude": 45.73212, "longitude": 126.6256, "count": 1, "Size": "2.065", "Notes:": null, "field_10": null, "Source: CBN": null }, "geometry": { "type": "Point", "coordinates": [ 126.6256, 45.73212 ] } },
{ "type": "Feature", "properties": { "province": "黑龙江省", "city": "哈尔滨市", "district": "南岗区", "address": "黑龙江省哈尔滨市南岗区西大直街351号", "latitude": 45.73383, "longitude": 126.6155, "count": 1, "Size": "2.065", "Notes:": null, "field_10": null, "Source: CBN": null }, "geometry": { "type": "Point", "coordinates": [ 126.6155, 45.73383 ] } },
{ "type": "Feature", "properties": { "province": "黑龙江省", "city": "哈尔滨市", "district": "南岗区", "address": "黑龙江省哈尔滨市南岗区和兴路199号1栋6单元", "latitude": 45.73429, "longitude": 126.6144, "count": 1, "Size": "2.065", "Notes:": null, "field_10": null, "Source: CBN": null }, "geometry": { "type": "Point", "coordinates": [ 126.6144, 45.73429 ] } },
{ "type": "Feature", "properties": { "province": "黑龙江省", "city": "哈尔滨市", "district": "南岗区", "address": "黑龙江省哈尔滨市南岗区振兴街80号", "latitude": 45.72045, "longitude": 126.614, "count": 1, "Size": "2.065", "Notes:": null, "field_10": null, "Source: CBN": null }, "geometry": { "type": "Point", "coordinates": [ 126.614, 45.72045 ] } },
{ "type": "Feature", "properties": { "province": "黑龙江省", "city": "哈尔滨市", "district": "南岗区", "address": "黑龙江省哈尔滨市南岗区清明4道街162号", "latitude": 45.736, "longitude": 126.6129, "count": 1, "Size": "2.065", "Notes:": null, "field_10": null, "Source: CBN": null }, "geometry": { "type": "Point", "coordinates": [ 126.6129, 45.736 ] } },
{ "type": "Feature", "properties": { "province": "黑龙江省", "city": "哈尔滨市", "district": "南岗区", "address": "黑龙江省哈尔滨市南岗区恒祥城小区3期5号楼2单元", "latitude": 45.73454, "longitude": 126.6097, "count": 1, "Size": "2.065", "Notes:": null, "field_10": null, "Source: CBN": null }, "geometry": { "type": "Point", "coordinates": [ 126.6097, 45.73454 ] } },
{ "type": "Feature", "properties": { "province": "黑龙江省", "city": "哈尔滨市", "district": "南岗区", "address": "黑龙江省哈尔滨市南岗区保利清华小区4号楼", "latitude": 45.71938, "longitude": 126.6038, "count": 1, "Size": "2.065", "Notes:": null, "field_10": null, "Source: CBN": null }, "geometry": { "type": "Point", "coordinates": [ 126.6038, 45.71938 ] } },
{ "type": "Feature", "properties": { "province": "黑龙江省", "city": "哈尔滨市", "district": "南岗区", "address": "黑龙江省哈尔滨市南岗区保利清华1号楼", "latitude": 45.71622, "longitude": 126.6007, "count": 1, "Size": "2.065", "Notes:": null, "field_10": null, "Source: CBN": null }, "geometry": { "type": "Point", "coordinates": [ 126.6007, 45.71622 ] } },
{ "type": "Feature", "properties": { "province": "黑龙江省", "city": "哈尔滨市", "district": "南岗区", "address": "黑龙江省哈尔滨市南岗区金域蓝城小区", "latitude": 45.7148, "longitude": 126.5906, "count": 1, "Size": "2.065", "Notes:": null, "field_10": null, "Source: CBN": null }, "geometry": { "type": "Point", "coordinates": [ 126.5906, 45.7148 ] } },
{ "type": "Feature", "properties": { "province": "黑龙江省", "city": "哈尔滨市", "district": "南岗区", "address": "黑龙江省哈尔滨市南岗区美馨家园小区", "latitude": 45.66359, "longitude": 126.5547, "count": 2, "Size": "2.58316855", "Notes:": null, "field_10": null, "Source: CBN": null }, "geometry": { "type": "Point", "coordinates": [ 126.5547, 45.66359 ] } },
{ "type": "Feature", "properties": { "province": "黑龙江省", "city": "哈尔滨市", "district": "五常市", "address": "黑龙江省哈尔滨市五常市龙凤山乡学田村四屯", "latitude": 44.79146, "longitude": 127.5912, "count": 3, "Size": "2.944626535", "Notes:": null, "field_10": null, "Source: CBN": null }, "geometry": { "type": "Point", "coordinates": [ 127.5912, 44.79146 ] } },
{ "type": "Feature", "properties": { "province": "黑龙江省", "city": "哈尔滨市", "district": "五常市", "address": "黑龙江省哈尔滨市五常市东新立村瓦轮屯", "latitude": 44.72037, "longitude": 127.3864, "count": 4, "Size": "3.231360659", "Notes:": null, "field_10": null, "Source: CBN": null }, "geometry": { "type": "Point", "coordinates": [ 127.3864, 44.72037 ] } },
{ "type": "Feature", "properties": { "province": "黑龙江省", "city": "哈尔滨市", "district": "五常市", "address": "黑龙江省哈尔滨市五常市山河镇", "latitude": 44.71376, "longitude": 127.212, "count": 1, "Size": "2.065", "Notes:": null, "field_10": null, "Source: CBN": null }, "geometry": { "type": "Point", "coordinates": [ 127.212, 44.71376 ] } },
{ "type": "Feature", "properties": { "province": "黑龙江省", "city": "哈尔滨市", "district": "五常市", "address": "黑龙江省哈尔滨市五常市金座国际小区", "latitude": 44.93241, "longitude": 127.1715, "count": 3, "Size": "2.944626535", "Notes:": null, "field_10": null, "Source: CBN": null }, "geometry": { "type": "Point", "coordinates": [ 127.1715, 44.93241 ] } },
{ "type": "Feature", "properties": { "province": "黑龙江省", "city": "哈尔滨市", "district": "五常市", "address": "黑龙江省哈尔滨市五常市宝立小区顺鑫老年公寓", "latitude": 44.91799, "longitude": 127.1704, "count": 4, "Size": "3.231360659", "Notes:": null, "field_10": null, "Source: CBN": null }, "geometry": { "type": "Point", "coordinates": [ 127.1704, 44.91799 ] } },
{ "type": "Feature", "properties": { "province": "黑龙江省", "city": "哈尔滨市", "district": "五常市", "address": "黑龙江省哈尔滨市五常市宝立小区", "latitude": 44.91853, "longitude": 127.1695, "count": 3, "Size": "2.944626535", "Notes:": null, "field_10": null, "Source: CBN": null }, "geometry": { "type": "Point", "coordinates": [ 127.1695, 44.91853 ] } },
{ "type": "Feature", "properties": { "province": "黑龙江省", "city": "哈尔滨市", "district": "五常市", "address": "黑龙江省哈尔滨市五常市迎宾小区8号楼3单元", "latitude": 44.92074, "longitude": 127.162, "count": 2, "Size": "2.58316855", "Notes:": null, "field_10": null, "Source: CBN": null }, "geometry": { "type": "Point", "coordinates": [ 127.162, 44.92074 ] } },
{ "type": "Feature", "properties": { "province": "黑龙江省", "city": "哈尔滨市", "district": "五常市", "address": "黑龙江省哈尔滨市五常市迎宾小区8号楼", "latitude": 44.92074, "longitude": 127.162, "count": 2, "Size": "2.58316855", "Notes:": null, "field_10": null, "Source: CBN": null }, "geometry": { "type": "Point", "coordinates": [ 127.162, 44.92074 ] } },
{ "type": "Feature", "properties": { "province": "黑龙江省", "city": "哈尔滨市", "district": "五常市", "address": "黑龙江省哈尔滨市五常市福润小区", "latitude": 44.93112, "longitude": 127.1596, "count": 4, "Size": "3.231360659", "Notes:": null, "field_10": null, "Source: CBN": null }, "geometry": { "type": "Point", "coordinates": [ 127.1596, 44.93112 ] } },
{ "type": "Feature", "properties": { "province": "黑龙江省", "city": "哈尔滨市", "district": "五常市", "address": "黑龙江省哈尔滨市五常市福润小区四号楼", "latitude": 44.93112, "longitude": 127.1596, "count": 3, "Size": "2.944626535", "Notes:": null, "field_10": null, "Source: CBN": null }, "geometry": { "type": "Point", "coordinates": [ 127.1596, 44.93112 ] } },
{ "type": "Feature", "properties": { "province": "黑龙江省", "city": "哈尔滨市", "district": "五常市", "address": "黑龙江省哈尔滨市五常市金泰新区11号楼7单元", "latitude": 44.91358, "longitude": 127.1565, "count": 1, "Size": "2.065", "Notes:": null, "field_10": null, "Source: CBN": null }, "geometry": { "type": "Point", "coordinates": [ 127.1565, 44.91358 ] } },
{ "type": "Feature", "properties": { "province": "黑龙江省", "city": "哈尔滨市", "district": "五常市", "address": "黑龙江省哈尔滨市五常市阳光花园二期", "latitude": 44.92361, "longitude": 127.1541, "count": 2, "Size": "2.58316855", "Notes:": null, "field_10": null, "Source: CBN": null }, "geometry": { "type": "Point", "coordinates": [ 127.1541, 44.92361 ] } },
{ "type": "Feature", "properties": { "province": "黑龙江省", "city": "哈尔滨市", "district": "五常市", "address": "黑龙江省哈尔滨市五常市镇鸿霖小区", "latitude": 44.92491, "longitude": 127.1529, "count": 1, "Size": "2.065", "Notes:": null, "field_10": null, "Source: CBN": null }, "geometry": { "type": "Point", "coordinates": [ 127.1529, 44.92491 ] } },
{ "type": "Feature", "properties": { "province": "黑龙江省", "city": "哈尔滨市", "district": "五常市", "address": "黑龙江省哈尔滨市五常市孙家屯", "latitude": 45.1957, "longitude": 127.0537, "count": 1, "Size": "2.065", "Notes:": null, "field_10": null, "Source: CBN": null }, "geometry": { "type": "Point", "coordinates": [ 127.0537, 45.1957 ] } },
{ "type": "Feature", "properties": { "province": "黑龙江省", "city": "哈尔滨市", "district": null, "address": null, "latitude": null, "longitude": null, "count": 197, "Size": "11.37712807", "Notes:": null, "field_10": null, "Source: CBN": null }, "geometry": null },
{ "type": "Feature", "properties": { "province": "黑龙江省", "city": "双鸭山市", "district": "饶河县", "address": "黑龙江省双鸭山市饶河县庐园村", "latitude": 47.07435, "longitude": 133.3161, "count": 1, "Size": "2.065", "Notes:": null, "field_10": null, "Source: CBN": null }, "geometry": { "type": "Point", "coordinates": [ 133.3161, 47.07435 ] } },
{ "type": "Feature", "properties": { "province": "黑龙江省", "city": "双鸭山市", "district": "集贤县", "address": "黑龙江省双鸭山市集贤县明星村", "latitude": 46.81482, "longitude": 131.4105, "count": 1, "Size": "2.065", "Notes:": null, "field_10": null, "Source: CBN": null }, "geometry": { "type": "Point", "coordinates": [ 131.4105, 46.81482 ] } },
{ "type": "Feature", "properties": { "province": "黑龙江省", "city": "双鸭山市", "district": "尖山区", "address": "黑龙江省双鸭山市尖山区长虹小区11栋3单元", "latitude": 46.64783, "longitude": 131.1496, "count": 1, "Size": "2.065", "Notes:": null, "field_10": null, "Source: CBN": null }, "geometry": { "type": "Point", "coordinates": [ 131.1496, 46.64783 ] } },
{ "type": "Feature", "properties": { "province": "黑龙江省", "city": "双鸭山市", "district": "宝清县", "address": "黑龙江省双鸭山市宝清县中央街公寓", "latitude": 46.33319, "longitude": 132.2213, "count": 1, "Size": "2.065", "Notes:": null, "field_10": null, "Source: CBN": null }, "geometry": { "type": "Point", "coordinates": [ 132.2213, 46.33319 ] } },
{ "type": "Feature", "properties": { "province": "黑龙江省", "city": "双鸭山市", "district": "宝清县", "address": "黑龙江省双鸭山市宝清县利民小区", "latitude": 46.33444, "longitude": 132.2179, "count": 1, "Size": "2.065", "Notes:": null, "field_10": null, "Source: CBN": null }, "geometry": { "type": "Point", "coordinates": [ 132.2179, 46.33444 ] } },
{ "type": "Feature", "properties": { "province": "黑龙江省", "city": "双鸭山市", "district": "宝清县", "address": "黑龙江省双鸭山市宝清县和平里小区", "latitude": 46.33409, "longitude": 132.2049, "count": 1, "Size": "2.065", "Notes:": null, "field_10": null, "Source: CBN": null }, "geometry": { "type": "Point", "coordinates": [ 132.2049, 46.33409 ] } },
{ "type": "Feature", "properties": { "province": "黑龙江省", "city": "双鸭山市", "district": "四方台区", "address": "黑龙江省双鸭山市四方台区为民时代新城小区", "latitude": 46.59577, "longitude": 131.3392, "count": 1, "Size": "2.065", "Notes:": null, "field_10": null, "Source: CBN": null }, "geometry": { "type": "Point", "coordinates": [ 131.3392, 46.59577 ] } },
{ "type": "Feature", "properties": { "province": "黑龙江省", "city": "双鸭山市", "district": "友谊县", "address": "黑龙江省双鸭山市友谊县和谐福园10号楼7单元", "latitude": 46.77754, "longitude": 131.81, "count": 1, "Size": "2.065", "Notes:": null, "field_10": null, "Source: CBN": null }, "geometry": { "type": "Point", "coordinates": [ 131.81, 46.77754 ] } },
{ "type": "Feature", "properties": { "province": "黑龙江省", "city": "双鸭山市", "district": "友谊县", "address": "黑龙江省双鸭山市友谊县经济适用房1号楼2单元", "latitude": 46.76857, "longitude": 131.8073, "count": 1, "Size": "2.065", "Notes:": null, "field_10": null, "Source: CBN": null }, "geometry": { "type": "Point", "coordinates": [ 131.8073, 46.76857 ] } },
{ "type": "Feature", "properties": { "province": "黑龙江省", "city": "双鸭山市", "district": "友谊县", "address": "黑龙江省双鸭山市友谊县时代新城一期9号楼4单元", "latitude": 46.77195, "longitude": 131.8, "count": 1, "Size": "2.065", "Notes:": null, "field_10": null, "Source: CBN": null }, "geometry": { "type": "Point", "coordinates": [ 131.8, 46.77195 ] } },
{ "type": "Feature", "properties": { "province": "黑龙江省", "city": "双鸭山市", "district": "友谊县", "address": "黑龙江省双鸭山市友谊县学府小区", "latitude": 46.72145, "longitude": 131.5901, "count": 1, "Size": "2.065", "Notes:": null, "field_10": null, "Source: CBN": null }, "geometry": { "type": "Point", "coordinates": [ 131.5901, 46.72145 ] } },
{ "type": "Feature", "properties": { "province": "黑龙江省", "city": "双鸭山市", "district": "友谊县", "address": "黑龙江省双鸭山市友谊县向阳小区", "latitude": 46.72229, "longitude": 131.5749, "count": 1, "Size": "2.065", "Notes:": null, "field_10": null, "Source: CBN": null }, "geometry": { "type": "Point", "coordinates": [ 131.5749, 46.72229 ] } },
{ "type": "Feature", "properties": { "province": "黑龙江省", "city": "双鸭山市", "district": null, "address": null, "latitude": null, "longitude": null, "count": 52, "Size": "7.399274446", "Notes:": null, "field_10": null, "Source: CBN": null }, "geometry": null },
{ "type": "Feature", "properties": { "province": "黑龙江省", "city": "佳木斯市", "district": "桦川县", "address": "黑龙江省佳木斯市桦川县福顺康宁小区", "latitude": 47.0167, "longitude": 130.7225, "count": 1, "Size": "2.065", "Notes:": null, "field_10": null, "Source: CBN": null }, "geometry": { "type": "Point", "coordinates": [ 130.7225, 47.0167 ] } },
{ "type": "Feature", "properties": { "province": "黑龙江省", "city": "佳木斯市", "district": "桦川县", "address": "黑龙江省佳木斯市桦川县悦来镇中和村", "latitude": 47.00349, "longitude": 130.6432, "count": 1, "Size": "2.065", "Notes:": null, "field_10": null, "Source: CBN": null }, "geometry": { "type": "Point", "coordinates": [ 130.6432, 47.00349 ] } },
{ "type": "Feature", "properties": { "province": "黑龙江省", "city": "佳木斯市", "district": "富锦市", "address": "黑龙江省佳木斯市富锦市兴隆岗镇兴胜村", "latitude": 46.96194, "longitude": 132.5544, "count": 1, "Size": "2.065", "Notes:": null, "field_10": null, "Source: CBN": null }, "geometry": { "type": "Point", "coordinates": [ 132.5544, 46.96194 ] } },
{ "type": "Feature", "properties": { "province": "黑龙江省", "city": "佳木斯市", "district": null, "address": null, "latitude": null, "longitude": null, "count": 15, "Size": "4.952192666", "Notes:": null, "field_10": null, "Source: CBN": null }, "geometry": null },
{ "type": "Feature", "properties": { "province": "黑龙江省", "city": "伊春市", "district": "金山屯区", "address": "黑龙江省伊春市金山屯区公园小区", "latitude": 47.41011, "longitude": 129.4391, "count": 2, "Size": "2.58316855", "Notes:": null, "field_10": null, "Source: CBN": null }, "geometry": { "type": "Point", "coordinates": [ 129.4391, 47.41011 ] } },
{ "type": "Feature", "properties": { "province": "黑龙江省", "city": "伊春市", "district": null, "address": null, "latitude": null, "longitude": null, "count": 1, "Size": "2.065", "Notes:": null, "field_10": null, "Source: CBN": null }, "geometry": null },
{ "type": "Feature", "properties": { "province": "黑龙江省", "city": "七台河市", "district": "桃山区", "address": "黑龙江省七台河市桃山区电厂小区", "latitude": 45.75737, "longitude": 131.0172, "count": 2, "Size": "2.58316855", "Notes:": null, "field_10": null, "Source: CBN": null }, "geometry": { "type": "Point", "coordinates": [ 131.0172, 45.75737 ] } },
{ "type": "Feature", "properties": { "province": "黑龙江省", "city": "七台河市", "district": "桃山区", "address": "黑龙江省七台河市桃山区银财综合楼", "latitude": 45.77301, "longitude": 131.0141, "count": 1, "Size": "2.065", "Notes:": null, "field_10": null, "Source: CBN": null }, "geometry": { "type": "Point", "coordinates": [ 131.0141, 45.77301 ] } },
{ "type": "Feature", "properties": { "province": "黑龙江省", "city": "七台河市", "district": "桃山区", "address": "黑龙江省七台河市桃山区育才苑", "latitude": 45.77301, "longitude": 131.0141, "count": 1, "Size": "2.065", "Notes:": null, "field_10": null, "Source: CBN": null }, "geometry": { "type": "Point", "coordinates": [ 131.0141, 45.77301 ] } },
{ "type": "Feature", "properties": { "province": "黑龙江省", "city": "七台河市", "district": "桃山区", "address": "黑龙江省七台河市桃山区银泉小区", "latitude": 45.77397, "longitude": 131.0137, "count": 2, "Size": "2.58316855", "Notes:": null, "field_10": null, "Source: CBN": null }, "geometry": { "type": "Point", "coordinates": [ 131.0137, 45.77397 ] } },
{ "type": "Feature", "properties": { "province": "黑龙江省", "city": "七台河市", "district": "桃山区", "address": "黑龙江省七台河市桃山区旭日小区", "latitude": 45.77397, "longitude": 131.0137, "count": 2, "Size": "2.58316855", "Notes:": null, "field_10": null, "Source: CBN": null }, "geometry": { "type": "Point", "coordinates": [ 131.0137, 45.77397 ] } },
{ "type": "Feature", "properties": { "province": "黑龙江省", "city": "七台河市", "district": "新兴区", "address": "黑龙江省七台河市新兴区北岸新城", "latitude": 45.80353, "longitude": 130.9539, "count": 1, "Size": "2.065", "Notes:": null, "field_10": null, "Source: CBN": null }, "geometry": { "type": "Point", "coordinates": [ 130.9539, 45.80353 ] } },
{ "type": "Feature", "properties": { "province": "黑龙江省", "city": "七台河市", "district": "勃利县", "address": "黑龙江省七台河市勃利县世纪新村小区", "latitude": 45.74333, "longitude": 130.5683, "count": 2, "Size": "2.58316855", "Notes:": null, "field_10": null, "Source: CBN": null }, "geometry": { "type": "Point", "coordinates": [ 130.5683, 45.74333 ] } },
{ "type": "Feature", "properties": { "province": "黑龙江省", "city": "七台河市", "district": "勃利县", "address": "黑龙江省七台河市勃利县城西街1委", "latitude": 45.75214, "longitude": 130.5643, "count": 3, "Size": "2.944626535", "Notes:": null, "field_10": null, "Source: CBN": null }, "geometry": { "type": "Point", "coordinates": [ 130.5643, 45.75214 ] } },
{ "type": "Feature", "properties": { "province": "黑龙江省", "city": "七台河市", "district": null, "address": null, "latitude": null, "longitude": null, "count": 17, "Size": "5.156500422", "Notes:": null, "field_10": null, "Source: CBN": null }, "geometry": null },
{ "type": "Feature", "properties": { "province": "香港特别行政区", "city": "香港特别行政区", "district": "香港島", "address": "香港特别行政区香港特别行政区香港島太古城明宮閣", "latitude": 22.28365, "longitude": 114.2208, "count": 1, "Size": "2.065", "Notes:": null, "field_10": null, "Source: CBN": null }, "geometry": { "type": "Point", "coordinates": [ 114.2208, 22.28365 ] } },
{ "type": "Feature", "properties": { "province": "香港特别行政区", "city": "香港特别行政区", "district": "香港岛", "address": "香港特别行政区香港特别行政区香港岛鰂魚涌康景花園D座", "latitude": 22.27861, "longitude": 114.2178, "count": 1, "Size": "2.065", "Notes:": null, "field_10": null, "Source: CBN": null }, "geometry": { "type": "Point", "coordinates": [ 114.2178, 22.27861 ] } },
{ "type": "Feature", "properties": { "province": "香港特别行政区", "city": "香港特别行政区", "district": "新界西貢區", "address": "香港特别行政区香港特别行政区新界西貢區將軍澳怡明邨怡情樓", "latitude": 22.30371, "longitude": 114.2681, "count": 1, "Size": "2.065", "Notes:": null, "field_10": null, "Source: CBN": null }, "geometry": { "type": "Point", "coordinates": [ 114.2681, 22.30371 ] } },
{ "type": "Feature", "properties": { "province": "香港特别行政区", "city": "香港特别行政区", "district": "九龍黃大仙區", "address": "香港特别行政区香港特别行政区九龍黃大仙區慈雲山慈愛苑愛華閣", "latitude": 22.34794, "longitude": 114.2045, "count": 1, "Size": "2.065", "Notes:": null, "field_10": null, "Source: CBN": null }, "geometry": { "type": "Point", "coordinates": [ 114.2045, 22.34794 ] } },
{ "type": "Feature", "properties": { "province": "香港特别行政区", "city": "香港特别行政区", "district": "九龍", "address": "香港特别行政区香港特别行政区九龍觀塘康寧道25-41號金僑華廈", "latitude": 22.31171, "longitude": 114.2279, "count": 1, "Size": "2.065", "Notes:": null, "field_10": null, "Source: CBN": null }, "geometry": { "type": "Point", "coordinates": [ 114.2279, 22.31171 ] } },
{ "type": "Feature", "properties": { "province": "香港特别行政区", "city": null, "district": "香港島東區", "address": "香港特别行政区None香港島東區小西灣邨瑞滿樓", "latitude": 22.25947, "longitude": 114.254066, "count": 2, "Size": "2.58316855", "Notes:": null, "field_10": null, "Source: CBN": null }, "geometry": { "type": "Point", "coordinates": [ 114.254066, 22.25947 ] } },
{ "type": "Feature", "properties": { "province": "香港特别行政区", "city": null, "district": "新界屯門區", "address": "香港特别行政区None新界屯門區屯門海景花園一座", "latitude": 22.37525, "longitude": 113.988626, "count": 1, "Size": "2.065", "Notes:": null, "field_10": null, "Source: CBN": null }, "geometry": { "type": "Point", "coordinates": [ 113.988626, 22.37525 ] } },
{ "type": "Feature", "properties": { "province": "香港特别行政区", "city": null, "district": null, "address": null, "latitude": null, "longitude": null, "count": 69, "Size": "8.107151938", "Notes:": null, "field_10": null, "Source: CBN": null }, "geometry": null },
{ "type": "Feature", "properties": { "province": "青海省", "city": "西宁市", "district": "湟中区", "address": "青海省西宁市湟中区湟中县上新庄镇刘小庄村", "latitude": 36.47607, "longitude": 101.6456, "count": 1, "Size": "2.065", "Notes:": null, "field_10": null, "Source: CBN": null }, "geometry": { "type": "Point", "coordinates": [ 101.6456, 36.47607 ] } },
{ "type": "Feature", "properties": { "province": "青海省", "city": "西宁市", "district": "湟中区", "address": "青海省西宁市湟中区上新庄镇上峡门村", "latitude": 36.42868, "longitude": 101.5957, "count": 1, "Size": "2.065", "Notes:": null, "field_10": null, "Source: CBN": null }, "geometry": { "type": "Point", "coordinates": [ 101.5957, 36.42868 ] } },
{ "type": "Feature", "properties": { "province": "青海省", "city": "西宁市", "district": "湟中区", "address": "青海省西宁市湟中区李家山镇", "latitude": 36.79897, "longitude": 101.5593, "count": 2, "Size": "2.58316855", "Notes:": null, "field_10": null, "Source: CBN": null }, "geometry": { "type": "Point", "coordinates": [ 101.5593, 36.79897 ] } },
{ "type": "Feature", "properties": { "province": "青海省", "city": "西宁市", "district": "湟中区", "address": "青海省西宁市湟中区湟中县李家山镇汉水沟村", "latitude": 36.75379, "longitude": 101.5401, "count": 1, "Size": "2.065", "Notes:": null, "field_10": null, "Source: CBN": null }, "geometry": { "type": "Point", "coordinates": [ 101.5401, 36.75379 ] } },
{ "type": "Feature", "properties": { "province": "青海省", "city": "西宁市", "district": "海北州", "address": "青海省西宁市海北州门源县青石嘴镇黑石头村", "latitude": 37.46559, "longitude": 101.4496, "count": 1, "Size": "2.065", "Notes:": null, "field_10": null, "Source: CBN": null }, "geometry": { "type": "Point", "coordinates": [ 101.4496, 37.46559 ] } },
{ "type": "Feature", "properties": { "province": "青海省", "city": "西宁市", "district": "城北区", "address": "青海省西宁市城北区大堡子镇鲍家寨村", "latitude": 36.68106, "longitude": 101.6215, "count": 2, "Size": "2.58316855", "Notes:": null, "field_10": null, "Source: CBN": null }, "geometry": { "type": "Point", "coordinates": [ 101.6215, 36.68106 ] } },
{ "type": "Feature", "properties": { "province": "青海省", "city": "西宁市", "district": "城北区", "address": "青海省西宁市城北区青塘小镇", "latitude": 36.65735, "longitude": 101.6108, "count": 1, "Size": "2.065", "Notes:": null, "field_10": null, "Source: CBN": null }, "geometry": { "type": "Point", "coordinates": [ 101.6108, 36.65735 ] } },
{ "type": "Feature", "properties": { "province": "青海省", "city": "西宁市", "district": null, "address": null, "latitude": null, "longitude": null, "count": 15, "Size": "4.952192666", "Notes:": null, "field_10": null, "Source: CBN": null }, "geometry": null },
{ "type": "Feature", "properties": { "province": "青海省", "city": "海北藏族自治州", "district": "门源回族自治县", "address": "青海省海北藏族自治州门源回族自治县青石嘴镇黑石头村", "latitude": 37.4656, "longitude": 101.4496, "count": 1, "Size": "2.065", "Notes:": null, "field_10": null, "Source: CBN": null }, "geometry": { "type": "Point", "coordinates": [ 101.4496, 37.4656 ] } },
{ "type": "Feature", "properties": { "province": "青海省", "city": "海北藏族自治州", "district": null, "address": null, "latitude": null, "longitude": null, "count": 3, "Size": "2.944626535", "Notes:": null, "field_10": null, "Source: CBN": null }, "geometry": null },
{ "type": "Feature", "properties": { "province": "陕西省", "city": "铜川市", "district": null, "address": null, "latitude": null, "longitude": null, "count": 8, "Size": "4.042203016", "Notes:": null, "field_10": null, "Source: CBN": null }, "geometry": null },
{ "type": "Feature", "properties": { "province": "陕西省", "city": "西安市", "district": "高陵区", "address": null, "latitude": null, "longitude": null, "count": 2, "Size": "2.58316855", "Notes:": null, "field_10": null, "Source: CBN": null }, "geometry": null },
{ "type": "Feature", "properties": { "province": "陕西省", "city": "西安市", "district": "高新区", "address": "陕西省西安市高新区丈八三路", "latitude": 34.18997, "longitude": 108.8755, "count": 1, "Size": "2.065", "Notes:": null, "field_10": null, "Source: CBN": null }, "geometry": { "type": "Point", "coordinates": [ 108.8755, 34.18997 ] } },
{ "type": "Feature", "properties": { "province": "陕西省", "city": "西安市", "district": "高新区", "address": null, "latitude": null, "longitude": null, "count": 6, "Size": "3.683518962", "Notes:": null, "field_10": null, "Source: CBN": null }, "geometry": null },
{ "type": "Feature", "properties": { "province": "陕西省", "city": "西安市", "district": "雁塔区", "address": null, "latitude": null, "longitude": null, "count": 12, "Size": "4.607820987", "Notes:": null, "field_10": null, "Source: CBN": null }, "geometry": null },
{ "type": "Feature", "properties": { "province": "陕西省", "city": "西安市", "district": "阎良区", "address": null, "latitude": null, "longitude": null, "count": 6, "Size": "3.683518962", "Notes:": null, "field_10": null, "Source: CBN": null }, "geometry": null },
{ "type": "Feature", "properties": { "province": "陕西省", "city": "西安市", "district": "长安区", "address": null, "latitude": null, "longitude": null, "count": 2, "Size": "2.58316855", "Notes:": null, "field_10": null, "Source: CBN": null }, "geometry": null },
{ "type": "Feature", "properties": { "province": "陕西省", "city": "西安市", "district": "鄠邑区", "address": "陕西省西安市鄠邑区惠南小区", "latitude": 34.05582, "longitude": 108.628, "count": 1, "Size": "2.065", "Notes:": null, "field_10": null, "Source: CBN": null }, "geometry": { "type": "Point", "coordinates": [ 108.628, 34.05582 ] } },
{ "type": "Feature", "properties": { "province": "陕西省", "city": "西安市", "district": "鄠邑区", "address": "陕西省西安市鄠邑区曲抱村", "latitude": 34.09518, "longitude": 108.571, "count": 1, "Size": "2.065", "Notes:": null, "field_10": null, "Source: CBN": null }, "geometry": { "type": "Point", "coordinates": [ 108.571, 34.09518 ] } },
{ "type": "Feature", "properties": { "province": "陕西省", "city": "西安市", "district": "鄠邑区", "address": null, "latitude": null, "longitude": null, "count": 3, "Size": "2.944626535", "Notes:": null, "field_10": null, "Source: CBN": null }, "geometry": null },
{ "type": "Feature", "properties": { "province": "陕西省", "city": "西安市", "district": "西咸新区", "address": null, "latitude": null, "longitude": null, "count": 2, "Size": "2.58316855", "Notes:": null, "field_10": null, "Source: CBN": null }, "geometry": null },
{ "type": "Feature", "properties": { "province": "陕西省", "city": "西安市", "district": "莲湖区", "address": null, "latitude": null, "longitude": null, "count": 14, "Size": "4.843055116", "Notes:": null, "field_10": null, "Source: CBN": null }, "geometry": null },
{ "type": "Feature", "properties": { "province": "陕西省", "city": "西安市", "district": "碑林区", "address": "陕西省西安市碑林区东关正街109号", "latitude": 34.25946, "longitude": 108.9753, "count": 1, "Size": "2.065", "Notes:": null, "field_10": null, "Source: CBN": null }, "geometry": { "type": "Point", "coordinates": [ 108.9753, 34.25946 ] } },
{ "type": "Feature", "properties": { "province": "陕西省", "city": "西安市", "district": "碑林区", "address": "陕西省西安市碑林区玄风桥4号", "latitude": 34.25719, "longitude": 108.9655, "count": 1, "Size": "2.065", "Notes:": null, "field_10": null, "Source: CBN": null }, "geometry": { "type": "Point", "coordinates": [ 108.9655, 34.25719 ] } },